,ROUTE_NUMBER,ROUTE_NAME,DIRECTION_NAME,DIRECTION_NAME_ALT,SERVICE_CODE,SERVICE_TYPE,SERVICE_CLASS,SERVICE_MODE,SORT_ORDER,STOP_ID,STOP,TRAVEL_DIRECTION,TIMEPOINT,CITY,COUNTY,TAZ,CENSUS_TRACT,AVG_DWELL_TIME,AVG_SEGMENT_MILES,AVG_PASSENGER_MILES,AVG_PASSENGERS_ON,AVG_PASSENGERS_OFF,AVG_VEHICLE_SEATS,AVG_LOAD,MAX_LOAD,MAX_LOAD_P,AVG_WHEELCHAIR,AVG_BICYCLE,AVG_KNEEL,AVG_SERVICED,SUM_PASSENGERS_ON,SUM_PASSENGERS_OFF,SUM_VEHICLE_SEATS,SUM_LOAD,SUM_PASSENGER_MILES,SUM_WHEELCHAIR,SUM_FON,SUM_FOFF,SUM_RON,SUM_ROFF,SUM_BICYCLE,SUM_KNEEL,AVG_LOAD_P,TRIPS_EARLY,TRIPS_LATE,TRIPS_ONTIME,Latitude,Longitude_x,SUM_TRAFFIC_PRIORITY,LAT_ACTUAL,LON_ACTUAL,LOAD_DURATION_ALT,LOAD_DURATION,ONTIME,STOP_KEY,TRIPS_COUNT,TRIPS_GROSS,ACTUAL_DIST,stop_id,stop_code,stop_name,Longitude_y
0,1.4,Route #1 am HC:1,INBOUND,,Route #1,,,Bus,40,1915,5232 USHER,N,0,,,,,0.02296774194,0.09052560000000001,0.1712740385,0,0,30.0,3,9,0.28125,0,0,0,0.076,8,8,4720.0,475,42.99966,0,8,3,0,3,0,0,10.0,0.0,0.0,0.0,34.98916,-85.316315,0,34.98913724,-85.31632787,0.0,0.0,0.0,,156,156,9.0,1915,1915,5232 USHER,-85.31631999999999
1,1.4,Route #1 am HC:1,INBOUND,,Route #1,,,Bus,50,72,DORRIS/5216,N,0,,,,,0.0004516129032,0.0932688,0.1764641608,0,0,30.0,3,9,0.28125,0,0,0,0.0,0,0,4720.0,475,44.30268,0,0,0,0,0,0,0,10.0,0.0,0.0,0.0,34.9899,-85.315905,0,34.98989745,-85.31590418,0.0,0.0,0.0,,156,156,1.0,72,72,DORRIS + 5216,-85.31591
2,1.4,Route #1 am HC:1,INBOUND,,Route #1,,,Bus,60,1892,USHER/52ND,E,0,,,,,0.0005161290323000001,0.0950976,0.1806818182,0,0,30.0,3,9,0.28125,0,0,0,0.006,2,0,4720.0,477,45.361555200000005,0,2,0,0,0,0,0,10.0,0.0,0.0,0.0,34.99066,-85.31548000000001,0,34.99066188,-85.31548369,0.0,0.0,0.0,,156,156,1.0,1892,1892,USHER + 52ND,-85.31548000000001
3,1.4,Route #1 am HC:1,INBOUND,,Route #1,,,Bus,70,161,52ND/FAGAN,S,0,,,,,0.01187096774,0.16398239999999997,0.31417297980000003,0,0,30.0,3,9,0.28125,0,0,0,0.032,5,1,4720.0,481,78.8755344,0,5,1,0,0,0,0,10.0,0.0,0.0,0.0,34.99054,-85.314538,0,34.99053821,-85.31454271,0.0,0.0,0.0,,156,156,2.0,161,161,52ND + FAGAN,-85.31454000000001
4,1.4,Route #1 am HC:1,INBOUND,,Route #1,,,Bus,100,158,52ND/WILSON,E,0,,,,,0.002903225806,0.17952720000000003,0.3518210956,0,0,30.0,3,9,0.28125,0,0,0,0.153,22,21,4720.0,492,88.3273824,0,22,13,0,11,0,0,10.0,0.0,0.0,0.0,34.98899,-85.31004,0,34.98898575,-85.31004597,0.0,0.0,0.0,,156,156,2.0,158,158,52ND + WILSON,-85.31004
5,1.4,Route #1 am HC:1,INBOUND,,Route #1,,,Bus,180,1899,49TH/715,W,0,,,,,0.06083870967999999,0.1591056,0.3251092657,0,0,30.0,3,11,0.34375,0,0,0,0.307,46,28,4720.0,513,81.6211728,1,46,23,0,5,0,0,10.0,0.0,0.0,0.0,34.99199,-85.30632,0,34.99200748,-85.30637235,0.0,0.0,0.0,,156,156,17.0,1899,1899,49TH + 715,-85.30632
6,1.4,Route #1 am HC:1,INBOUND,,Route #1,,,Bus,220,150,WILSON/WORKMANS,N,0,,,,,0.0,0.56388,1.284722222,0,0,30.0,3,12,0.375,0,0,0,0.012,2,1,4720.0,572,322.53936,0,2,1,0,0,0,0,12.0,0.0,0.0,0.0,34.995670000000004,-85.306162,0,34.995670000000004,-85.30615999999999,0.0,0.0,0.0,,156,156,1.0,150,150,WILSON + WORKMANS,-85.30615999999999
7,1.4,Route #1 am HC:1,INBOUND,,Route #1,,,Bus,390,113,PIROLA/37TH,W,0,,,,,0.03573333333,0.16581120000000002,0.5197746698,0,0,30.0,5,16,0.5,0,0,0,0.083,20,1,4720.0,787,130.4934144,0,20,0,0,1,0,0,16.0,0.0,0.0,0.0,35.01059,-85.320022,0,35.01057789,-85.31998731,0.0,0.0,0.0,,156,156,11.0,113,113,PIROLA + 37TH,-85.32002
8,1.4,Route #1 am HC:1,INBOUND,,Route #1,,,Bus,540,125,33RD/CHATTEM,E,0,,,,,0.008322580645,0.10972799999999999,0.36494755240000004,0,0,30.0,5,17,0.53125,0,0,0,0.051,8,2,4720.0,835,91.62288000000001,0,8,2,0,0,0,0,17.0,0.0,0.0,0.0,35.01727,-85.321325,0,35.01727543,-85.32133758,0.0,0.0,0.0,,156,156,4.0,125,125,33RD + CHATTEM,-85.32133
9,1.4,Route #1 am HC:1,INBOUND,,Route #1,,,Bus,540,125,33RD/CHATTEM,E,0,,,,,0.008322580645,0.10972799999999999,0.36494755240000004,0,0,30.0,5,17,0.53125,0,0,0,0.051,8,2,4720.0,835,91.62288000000001,0,8,2,0,0,0,0,17.0,0.0,0.0,0.0,35.01727,-85.321325,0,35.01727543,-85.32133758,0.0,0.0,0.0,,156,156,4.0,132,132,ALTON PK BLVD + 31ST,-85.31299999999999
10,1.4,Route #1 am HC:1,INBOUND,,Route #1,,,Bus,560,127,33RD/TEEN CHALLENGE,E,0,,,,,0.0,0.1057656,0.35219017090000004,0,0,30.0,5,17,0.53125,0,0,0,0.0,0,0,4720.0,836,88.42004159999999,0,0,0,0,0,0,0,17.0,0.0,0.0,0.0,35.01647,-85.319037,0,35.016472,-85.319038,0.0,0.0,0.0,,156,156,1.0,127,127,33RD + TEEN CHALLENGE,-85.31904
11,1.4,Route #1 am HC:1,INBOUND,,Route #1,,,Bus,660,138,S MARKET/19TH,N,0,,,,,0.054871794870000004,0.21518879999999999,0.7517021173,0,0,30.0,5,16,0.5,0,0,0,0.294,33,38,4720.0,877,188.72057759999998,0,33,18,0,19,0,0,18.0,0.0,0.0,0.0,35.032270000000004,-85.308545,0,35.03229363,-85.30854882,0.0,0.0,0.0,,156,156,9.0,138,138,S MARKET + 19TH,-85.30855
12,4.0,Route #4,INBOUND,,Route #4,,,Bus,1040,138,S MARKET/19TH,N,0,,,,,0.2727272727,0.21518879999999999,0.4497589532,0,0,30.0,3,9,0.28125,0,0,0,0.18100000000000002,4,3,336.0,37,7.9619856,0,4,3,0,0,0,0,11.0,0.0,0.0,0.0,35.032270000000004,-85.308545,0,35.03224227,-85.30855282,0.0,0.0,0.0,,11,11,10.0,138,138,S MARKET + 19TH,-85.30855
13,1.4,Route #1 am HC:1,INBOUND,,Route #1,,,Bus,720,143,MARKET/SPS,N,0,,,,,2.759455782,0.105156,0.2898455711,0,1,30.0,4,14,0.4375,0,0,0,0.5379999999999999,124,226,4720.0,692,72.76795200000001,3,120,157,4,24,0,0,14.0,0.0,0.0,0.0,35.0386,-85.30743299999999,0,35.0387467,-85.30741972,0.0,0.0,0.0,,156,156,54.0,143,143,MARKET + SPS,-85.30743000000001
14,4.0,Route #4,INBOUND,,Route #4,,,Bus,1090,143,MARKET/SPS,N,0,,,,,0.9909090909,0.105156,0.1960227273,0,0,30.0,3,9,0.28125,0,0,0,0.18100000000000002,2,3,336.0,33,3.4701480000000005,0,4,6,1,1,0,0,9.0,0.0,0.0,0.0,35.0386,-85.30743299999999,0,35.03860236,-85.30742845,0.0,0.0,0.0,,11,11,2.0,143,143,MARKET + SPS,-85.30743000000001
15,9.0,Route #9,INBOUND,,Route #9,,,Bus,620,143,MARKET/SPS,N,0,,,,,1.3808490569999998,0.105156,0.3785063473,0,0,30.0,5,25,0.78125,0,0,0,0.387,40,101,3358.0,643,67.615308,2,37,57,3,13,0,0,19.0,0.0,0.0,0.0,35.0386,-85.30743299999999,0,35.03867727,-85.30742764,0.0053235053240000005,0.0,0.0,,111,111,28.0,143,143,MARKET + SPS,-85.30743000000001
16,21.0,Route #21,INBOUND,,Route #21,,,Bus,180,143,MARKET/SPS,N,0,,,,,2.1122891569999998,0.105156,0.2345012626,0,1,31.0,3,10,0.3125,0,0,0,0.522,75,108,2836.0,323,33.965388,2,66,88,9,13,0,0,11.0,0.0,0.0,0.0,35.0386,-85.30743299999999,0,35.03869816,-85.30742707,0.0,0.0,0.0,,90,90,36.0,143,143,MARKET + SPS,-85.30743000000001
17,33.0,Route #DTS:33,OUTYBOUND,,Route #DTS,,,Bus,20,143,MARKET/SPS,N,0,,,,,,0.105156,0.028314393939999998,0,0,22.0,0,8,0.3636363636,0,0,0,0.1,13,0,264.0,13,1.3670280000000001,0,13,4,0,0,0,0,4.0,0.0,0.0,0.0,35.0386,-85.30743299999999,0,35.038601,-85.307434,0.0,0.0,0.0,,30,30,0.0,143,143,MARKET + SPS,-85.30743000000001
18,34.0,Route #34,OUTBOUND,,Route #34,,,Bus,20,143,MARKET/SPS,N,0,,,,,,0.105156,0.0,0,0,,0,0,,0,0,0,0.0,0,0,,0,0.0,0,0,0,0,0,0,0,,0.0,0.0,0.0,35.0386,-85.30743299999999,0,35.038601,-85.307434,0.0,0.0,0.0,,4,4,0.0,143,143,MARKET + SPS,-85.30743000000001
19,1.4,Route #1 am HC:1,INBOUND,,Route #1,,,Bus,770,1560,MARKET/WAREHOUSE ROW,N,0,,,,,0.0,0.0896112,0.197027972,0,0,30.0,3,9,0.28125,0,0,0,0.076,0,1,392.0,46,4.1221152000000005,0,0,1,0,0,0,0,11.0,0.0,0.0,0.0,35.04288,-85.309102,0,35.042881,-85.309105,0.0,0.0,0.0,,13,13,1.0,1560,1560,MARKET + WAREHOUSE ROW,-85.3091
20,2.0,Route #2,OUTBOUND,,Route #2,,,Bus,60,1560,MARKET/WAREHOUSE ROW,N,0,,,,,0.0,0.0896112,-0.01856060606,0,0,32.0,0,0,0.0,0,0,0,0.0,0,0,96.0,-1,-0.0896112,0,0,0,0,0,0,0,-1.0,0.0,0.0,0.0,35.04288,-85.309102,0,35.042881,-85.309105,0.0,0.0,0.0,,3,3,1.0,1560,1560,MARKET + WAREHOUSE ROW,-85.3091
21,4.0,Route #4,INBOUND,,Route #4,,,Bus,1130,1560,MARKET/WAREHOUSE ROW,N,0,,,,,0.0,0.0896112,0.05568181818,0,0,30.0,1,3,0.1,0,0,0,0.0,0,0,120.0,4,0.3584448,0,0,0,0,0,0,0,3.0,0.0,0.0,0.0,35.04288,-85.309102,0,35.042881,-85.309105,0.0,0.0,0.0,,4,4,1.0,1560,1560,MARKET + WAREHOUSE ROW,-85.3091
22,9.0,Route #9,INBOUND,,Route #9,,,Bus,670,1560,MARKET/WAREHOUSE ROW,N,0,,,,,0.007857142857,0.0896112,0.2617045455,0,0,30.0,4,13,0.43333333329999996,0,0,0,0.166,0,14,900.0,141,12.635179199999998,0,0,8,0,6,0,0,15.0,0.0,0.0,0.0,35.04288,-85.309102,0,35.04290061,-85.309111,0.0,0.0,0.0,,30,30,8.0,1560,1560,MARKET + WAREHOUSE ROW,-85.3091
23,10.1,Route #10A,OUTBOUND,,Route #10,,,Bus,70,1560,MARKET/WAREHOUSE ROW,N,0,,,,,0.0,0.0896112,0.19352827050000002,0,0,30.0,3,10,0.3125,0,0,0,0.0,0,0,2482.0,285,25.539192,0,0,0,0,0,0,0,11.0,0.0,0.0,0.0,35.04288,-85.309102,0,35.042881,-85.309105,0.0,0.0,0.0,,82,82,1.0,1560,1560,MARKET + WAREHOUSE ROW,-85.3091
24,10.6,Route #10C,OUTBOUND,,Route #10,,,Bus,80,1560,MARKET/WAREHOUSE ROW,N,0,,,,,0.0,0.0896112,0.08178267045,0,0,30.0,1,5,0.15625,0,0,0,0.031,1,1,964.0,47,4.2117264,0,1,1,0,0,0,0,4.0,0.0,0.0,0.0,35.04288,-85.309102,0,35.042881,-85.309105,0.0,0.0,0.0,,32,32,1.0,1560,1560,MARKET + WAREHOUSE ROW,-85.3091
25,10.9,Route #10G 58:10G,OUTBOUND,,Route #10,,,Bus,70,1560,MARKET/WAREHOUSE ROW,N,0,,,,,0.0,0.0896112,0.1344318182,0,0,30.0,2,6,0.1875,0,0,0,0.0,0,0,2128.0,169,15.144292800000002,0,0,0,0,0,0,0,7.0,0.0,0.0,0.0,35.04288,-85.309102,0,35.042881,-85.309105,0.0,0.0,0.0,,70,70,1.0,1560,1560,MARKET + WAREHOUSE ROW,-85.3091
26,16.4,Route #16 In:16,OUTBOUND,,Route #16,,,Bus,80,1560,MARKET/WAREHOUSE ROW,N,0,,,,,0.003142857143,0.0896112,0.1690702479,0,0,30.0,3,10,0.3125,0,0,0,0.027000000000000003,3,0,3340.0,334,29.9301408,0,1,0,0,0,0,0,10.0,0.0,0.0,0.0,35.04288,-85.309102,0,35.04287696,-85.30910536,0.0,0.0,0.0,,110,110,1.0,1560,1560,MARKET + WAREHOUSE ROW,-85.3091
27,19.0,Route #19,INBOUND,,Route #19,,,Bus,1080,1560,MARKET/WAREHOUSE ROW,N,0,,,,,0.7866666667000001,0.0896112,0.05011363636,0,0,30.0,0,4,0.1333333333,0,0,0,0.0,0,0,300.0,9,0.8065008,0,0,0,0,0,0,0,3.0,0.0,0.0,0.0,35.04288,-85.309102,0,35.04294122,-85.30911856,0.0,0.0,0.0,,10,10,23.0,1560,1560,MARKET + WAREHOUSE ROW,-85.3091
28,33.0,Route #DTS:33,OUTYBOUND,,Route #DTS,,,Bus,80,1560,MARKET/WAREHOUSE ROW,N,0,,,,,0.0725698324,0.0896112,0.2309835423,0,0,22.0,4,22,1.0,0,0,0,0.19399999999999998,42,247,5434.0,2406,215.6045472,0,42,273,0,0,0,0,44.0,0.0,0.0,0.0,35.04288,-85.309102,0,35.04286697,-85.30911234,0.0069872958259999994,0.000998185118,0.0,,580,580,6.0,1560,1560,MARKET + WAREHOUSE ROW,-85.3091
29,34.0,Route #34,OUTBOUND,,Route #34,,,Bus,60,1560,MARKET/WAREHOUSE ROW,N,0,,,,,0.04,0.0896112,-0.013920454550000001,0,0,,0,0,,0,0,0,0.25,0,1,,-1,-0.0896112,0,0,2,0,0,0,0,,0.0,0.0,0.0,35.04288,-85.309102,0,35.04289133,-85.309115,0.0,0.0,0.0,,4,4,6.0,1560,1560,MARKET + WAREHOUSE ROW,-85.3091
30,1.4,Route #1 am HC:1,INBOUND,,Route #1,,,Bus,830,166,MARKET/5TH,N,0,,,,,0.0,0.1609344,0.1307692308,0,0,30.0,1,5,0.15625,0,0,0,0.0,0,0,392.0,17,2.7358848,0,0,0,0,0,0,0,4.0,0.0,0.0,0.0,35.05072,-85.30945200000001,0,35.05072,-85.309448,0.0,0.0,0.0,,13,13,1.0,166,166,MARKET + 5TH,-85.30945
31,1.4,Route #1 am HC:1,INBOUND,,Route #1,,,Bus,830,166,MARKET/5TH,N,0,,,,,0.0,0.1609344,0.1307692308,0,0,30.0,1,5,0.15625,0,0,0,0.0,0,0,392.0,17,2.7358848,0,0,0,0,0,0,0,4.0,0.0,0.0,0.0,35.05072,-85.30945200000001,0,35.05072,-85.309448,0.0,0.0,0.0,,13,13,1.0,259,259,ROANOKE + COOLEY,-85.26576
32,2.0,Route #2,OUTBOUND,,Route #2,,,Bus,130,166,MARKET/5TH,N,0,,,,,0.06706896552,3.0077664,1.9656086730000002,0,1,31.0,1,5,0.15625,0,0,0,0.568,28,58,1848.0,61,183.4737504,8,28,45,0,14,0,0,3.0,0.0,0.0,0.0,35.05072,-85.30945200000001,0,35.05074517,-85.30946847,0.0,0.0,0.0,,58,58,10.0,166,166,MARKET + 5TH,-85.30945
33,2.0,Route #2,OUTBOUND,,Route #2,,,Bus,130,166,MARKET/5TH,N,0,,,,,0.06706896552,3.0077664,1.9656086730000002,0,1,31.0,1,5,0.15625,0,0,0,0.568,28,58,1848.0,61,183.4737504,8,28,45,0,14,0,0,3.0,0.0,0.0,0.0,35.05072,-85.30945200000001,0,35.05074517,-85.30946847,0.0,0.0,0.0,,58,58,10.0,259,259,ROANOKE + COOLEY,-85.26576
34,4.0,Route #4,INBOUND,,Route #4,,,Bus,1360,166,MARKET/5TH,N,0,,,,,0.005,0.1609344,0.1,0,0,30.0,1,3,0.1,0,0,0,0.0,0,0,120.0,4,0.6437376,0,0,0,0,0,0,0,3.0,0.0,0.0,0.0,35.05072,-85.30945200000001,0,35.050742,-85.3094785,0.0,0.0,0.0,,4,4,11.0,166,166,MARKET + 5TH,-85.30945
35,4.0,Route #4,INBOUND,,Route #4,,,Bus,1360,166,MARKET/5TH,N,0,,,,,0.005,0.1609344,0.1,0,0,30.0,1,3,0.1,0,0,0,0.0,0,0,120.0,4,0.6437376,0,0,0,0,0,0,0,3.0,0.0,0.0,0.0,35.05072,-85.30945200000001,0,35.050742,-85.3094785,0.0,0.0,0.0,,4,4,11.0,259,259,ROANOKE + COOLEY,-85.26576
36,9.0,Route #9,INBOUND,,Route #9,,,Bus,730,166,MARKET/5TH,N,0,,,,,0.05208333333000001,0.1609344,0.20666666670000003,0,0,30.0,2,6,0.2,0,0,0,0.266,2,8,900.0,62,9.977932800000001,0,2,9,0,1,0,0,6.0,0.0,0.0,0.0,35.05072,-85.30945200000001,0,35.05095429,-85.30947221,0.0,0.0,0.0,,30,30,86.0,166,166,MARKET + 5TH,-85.30945
37,9.0,Route #9,INBOUND,,Route #9,,,Bus,730,166,MARKET/5TH,N,0,,,,,0.05208333333000001,0.1609344,0.20666666670000003,0,0,30.0,2,6,0.2,0,0,0,0.266,2,8,900.0,62,9.977932800000001,0,2,9,0,1,0,0,6.0,0.0,0.0,0.0,35.05072,-85.30945200000001,0,35.05095429,-85.30947221,0.0,0.0,0.0,,30,30,86.0,259,259,ROANOKE + COOLEY,-85.26576
38,10.1,Route #10A,OUTBOUND,,Route #10,,,Bus,130,166,MARKET/5TH,N,0,,,,,0.1528947368,0.1609344,0.5317073171,0,0,30.0,5,16,0.5,0,0,0,0.426,38,24,2482.0,436,70.16739840000001,0,38,14,0,12,0,0,17.0,0.0,0.0,0.0,35.05072,-85.30945200000001,0,35.05078143,-85.30947703,0.0,0.0,0.0,,82,82,24.0,166,166,MARKET + 5TH,-85.30945
39,10.1,Route #10A,OUTBOUND,,Route #10,,,Bus,130,166,MARKET/5TH,N,0,,,,,0.1528947368,0.1609344,0.5317073171,0,0,30.0,5,16,0.5,0,0,0,0.426,38,24,2482.0,436,70.16739840000001,0,38,14,0,12,0,0,17.0,0.0,0.0,0.0,35.05072,-85.30945200000001,0,35.05078143,-85.30947703,0.0,0.0,0.0,,82,82,24.0,259,259,ROANOKE + COOLEY,-85.26576
40,10.6,Route #10C,OUTBOUND,,Route #10,,,Bus,140,166,MARKET/5TH,N,0,,,,,0.114,0.1609344,0.196875,0,0,30.0,1,9,0.28125,0,0,0,0.156,4,3,964.0,63,10.1388672,0,4,2,0,2,0,0,6.0,0.0,0.0,0.0,35.05072,-85.30945200000001,0,35.050863,-85.3094842,0.0,0.0,0.0,,32,32,53.0,166,166,MARKET + 5TH,-85.30945
41,10.6,Route #10C,OUTBOUND,,Route #10,,,Bus,140,166,MARKET/5TH,N,0,,,,,0.114,0.1609344,0.196875,0,0,30.0,1,9,0.28125,0,0,0,0.156,4,3,964.0,63,10.1388672,0,4,2,0,2,0,0,6.0,0.0,0.0,0.0,35.05072,-85.30945200000001,0,35.050863,-85.3094842,0.0,0.0,0.0,,32,32,53.0,259,259,ROANOKE + COOLEY,-85.26576
42,10.9,Route #10G 58:10G,OUTBOUND,,Route #10,,,Bus,130,166,MARKET/5TH,N,0,,,,,0.1050793651,0.1609344,0.34,0,0,30.0,3,10,0.3125,0,0,0,0.271,18,21,2128.0,238,38.302387200000005,1,18,9,0,12,0,0,11.0,0.0,0.0,0.0,35.05072,-85.30945200000001,0,35.05075162,-85.30947159,0.0,0.0,0.0,,70,70,13.0,166,166,MARKET + 5TH,-85.30945
43,10.9,Route #10G 58:10G,OUTBOUND,,Route #10,,,Bus,130,166,MARKET/5TH,N,0,,,,,0.1050793651,0.1609344,0.34,0,0,30.0,3,10,0.3125,0,0,0,0.271,18,21,2128.0,238,38.302387200000005,1,18,9,0,12,0,0,11.0,0.0,0.0,0.0,35.05072,-85.30945200000001,0,35.05075162,-85.30947159,0.0,0.0,0.0,,70,70,13.0,259,259,ROANOKE + COOLEY,-85.26576
44,13.0,Route #13,INBOUND,,Route #13,,,Bus,730,166,MARKET/5TH,N,0,,,,,0.04375,0.43708320000000006,0.5771306818,0,0,30.0,2,5,0.1666666667,0,0,0,0.375,0,4,240.0,17,7.4304144,0,0,4,0,0,0,0,7.0,0.0,0.0,0.0,35.05072,-85.30945200000001,0,35.05074675,-85.30947188,0.0,0.0,0.0,,8,8,11.0,166,166,MARKET + 5TH,-85.30945
45,13.0,Route #13,INBOUND,,Route #13,,,Bus,730,166,MARKET/5TH,N,0,,,,,0.04375,0.43708320000000006,0.5771306818,0,0,30.0,2,5,0.1666666667,0,0,0,0.375,0,4,240.0,17,7.4304144,0,0,4,0,0,0,0,7.0,0.0,0.0,0.0,35.05072,-85.30945200000001,0,35.05074675,-85.30947188,0.0,0.0,0.0,,8,8,11.0,259,259,ROANOKE + COOLEY,-85.26576
46,16.4,Route #16 In:16,OUTBOUND,,Route #16,,,Bus,140,166,MARKET/5TH,N,0,,,,,0.09028037383,0.19779303269999998,0.4661673554,0,0,30.0,4,12,0.375,0,0,0,0.254,35,21,3340.0,454,82.5246,1,35,16,0,11,0,0,13.0,0.0,0.0,0.0,35.05072,-85.30945200000001,0,35.05074986,-85.30947157,0.0,0.0,0.0,,110,110,12.0,166,166,MARKET + 5TH,-85.30945
47,16.4,Route #16 In:16,OUTBOUND,,Route #16,,,Bus,140,166,MARKET/5TH,N,0,,,,,0.09028037383,0.19779303269999998,0.4661673554,0,0,30.0,4,12,0.375,0,0,0,0.254,35,21,3340.0,454,82.5246,1,35,16,0,11,0,0,13.0,0.0,0.0,0.0,35.05072,-85.30945200000001,0,35.05074986,-85.30947157,0.0,0.0,0.0,,110,110,12.0,259,259,ROANOKE + COOLEY,-85.26576
48,19.0,Route #19,OUTBOUND,,Route #19,,,Bus,60,166,MARKET/5TH,N,0,,,,,0.0415,0.1609344,0.52,0,0,30.0,5,12,0.4,0,0,0,0.1,1,7,600.0,104,16.7371776,0,1,4,0,0,0,0,17.0,0.0,0.0,0.0,35.05072,-85.30945200000001,0,35.0507414,-85.3094595,0.0,0.0,0.0,,20,20,8.0,166,166,MARKET + 5TH,-85.30945
49,19.0,Route #19,OUTBOUND,,Route #19,,,Bus,60,166,MARKET/5TH,N,0,,,,,0.0415,0.1609344,0.52,0,0,30.0,5,12,0.4,0,0,0,0.1,1,7,600.0,104,16.7371776,0,1,4,0,0,0,0,17.0,0.0,0.0,0.0,35.05072,-85.30945200000001,0,35.0507414,-85.3094595,0.0,0.0,0.0,,20,20,8.0,259,259,ROANOKE + COOLEY,-85.26576
50,21.0,Route #21,INBOUND,,Route #21,,,Bus,280,166,MARKET/5TH,N,0,,,,,0.0525,0.1609344,0.25,0,0,31.0,2,5,0.15625,0,0,0,0.125,2,0,248.0,20,3.218688,0,2,0,0,0,0,0,8.0,0.0,0.0,0.0,35.05072,-85.30945200000001,0,35.050732,-85.30945475,0.0,0.0,0.0,,8,8,4.0,166,166,MARKET + 5TH,-85.30945
51,21.0,Route #21,INBOUND,,Route #21,,,Bus,280,166,MARKET/5TH,N,0,,,,,0.0525,0.1609344,0.25,0,0,31.0,2,5,0.15625,0,0,0,0.125,2,0,248.0,20,3.218688,0,2,0,0,0,0,0,8.0,0.0,0.0,0.0,35.05072,-85.30945200000001,0,35.050732,-85.30945475,0.0,0.0,0.0,,8,8,4.0,259,259,ROANOKE + COOLEY,-85.26576
52,21.0,Route #21,OUTBOUND,,Route #21,,,Bus,140,166,MARKET/5TH,N,0,,,,,,0.20452079999999997,0.2943829114,0,0,31.0,2,11,0.34375,0,0,0,0.075,20,0,2498.0,183,37.4273064,1,18,1,0,0,0,0,7.0,0.0,0.0,0.0,35.05072,-85.30945200000001,0,35.05052086,-85.30948927,0.0,0.0,0.0,,79,79,74.0,166,166,MARKET + 5TH,-85.30945
53,21.0,Route #21,OUTBOUND,,Route #21,,,Bus,140,166,MARKET/5TH,N,0,,,,,,0.20452079999999997,0.2943829114,0,0,31.0,2,11,0.34375,0,0,0,0.075,20,0,2498.0,183,37.4273064,1,18,1,0,0,0,0,7.0,0.0,0.0,0.0,35.05072,-85.30945200000001,0,35.05052086,-85.30948927,0.0,0.0,0.0,,79,79,74.0,259,259,ROANOKE + COOLEY,-85.26576
54,34.0,Route #34,OUTBOUND,,Route #34,,,Bus,120,166,MARKET/5TH,N,0,,,,,0.0,0.6288024,0.0,0,0,,0,1,,0,0,0,0.0,0,0,,0,0.0,0,0,0,0,0,0,0,,0.0,0.0,0.0,35.05072,-85.30945200000001,0,35.05072,-85.309448,0.0,0.0,0.0,,4,4,1.0,166,166,MARKET + 5TH,-85.30945
55,34.0,Route #34,OUTBOUND,,Route #34,,,Bus,120,166,MARKET/5TH,N,0,,,,,0.0,0.6288024,0.0,0,0,,0,1,,0,0,0,0.0,0,0,,0,0.0,0,0,0,0,0,0,0,,0.0,0.0,0.0,35.05072,-85.30945200000001,0,35.05072,-85.309448,0.0,0.0,0.0,,4,4,1.0,259,259,ROANOKE + COOLEY,-85.26576
56,1.4,Route #1 am HC:1,INBOUND,,Route #1,,,Bus,880,172,4TH/HOUSTON,E,0,,,,,0.0,2.1470112,1.641958042,0,0,30.0,1,5,0.15625,0,0,0,0.076,0,1,392.0,16,34.3521792,0,0,1,0,0,0,0,4.0,0.0,0.0,0.0,35.0513,-85.301885,0,35.0513,-85.301888,0.0,0.0,0.0,,13,13,1.0,172,172,4TH + HOUSTON,-85.30189
57,4.0,Route #4,INBOUND,,Route #4,,,Bus,1410,172,4TH/HOUSTON,E,0,,,,,0.0,2.1470112,1.3340909090000002,0,0,30.0,1,3,0.1,0,0,0,0.0,0,0,120.0,4,8.5880448,0,0,0,0,0,0,0,3.0,0.0,0.0,0.0,35.0513,-85.301885,0,35.0513,-85.301888,0.0,0.0,0.0,,4,4,1.0,172,172,4TH + HOUSTON,-85.30189
58,9.0,Route #9,INBOUND,,Route #9,,,Bus,780,172,4TH/HOUSTON,E,0,,,,,0.002592592593,2.1470112,2.445833333,0,0,30.0,1,5,0.1666666667,0,0,0,0.1,0,4,900.0,55,118.08561599999999,0,0,4,0,0,0,0,6.0,0.0,0.0,0.0,35.0513,-85.301885,0,35.05130567,-85.30188741,0.0,0.0,0.0,,30,30,2.0,172,172,4TH + HOUSTON,-85.30189
59,10.1,Route #10A,OUTBOUND,,Route #10,,,Bus,180,172,4TH/HOUSTON,E,0,,,,,0.0062962962959999995,0.1804416,0.6070953437,0,0,30.0,5,16,0.5,0,0,0,0.109,4,6,2482.0,444,80.1160704,0,4,3,0,3,0,0,17.0,0.0,0.0,0.0,35.0513,-85.301885,0,35.05129628,-85.30185744,0.0,0.0,0.0,,82,82,8.0,172,172,4TH + HOUSTON,-85.30189
60,10.6,Route #10C,OUTBOUND,,Route #10,,,Bus,190,172,4TH/HOUSTON,E,0,,,,,0.0,0.1804416,0.3889204545,0,0,30.0,3,10,0.3125,0,0,0,0.062,2,0,964.0,111,20.0290176,0,2,0,0,0,0,0,11.0,0.0,0.0,0.0,35.0513,-85.301885,0,35.0513,-85.301888,0.0,0.0,0.0,,32,32,1.0,172,172,4TH + HOUSTON,-85.30189
61,10.9,Route #10G 58:10G,INBOUND,,Route #10,,,Bus,1110,172,4TH/HOUSTON,E,0,,,,,0.00125,2.1470112,3.76684492,0,0,30.0,2,5,0.15625,0,0,0,0.11699999999999999,1,2,514.0,48,103.0565376,0,1,2,0,0,0,0,9.0,0.0,0.0,0.0,35.0513,-85.301885,0,35.05130069,-85.30187556,0.0,0.0,0.0,,17,17,3.0,172,172,4TH + HOUSTON,-85.30189
62,10.9,Route #10G 58:10G,OUTBOUND,,Route #10,,,Bus,180,172,4TH/HOUSTON,E,0,,,,,0.001,0.1804416,0.40683982679999997,0,0,30.0,3,10,0.3125,0,0,0,0.013999999999999999,0,1,2128.0,254,45.8321664,0,0,0,0,1,0,0,11.0,0.0,0.0,0.0,35.0513,-85.301885,0,35.05130163,-85.3018869,0.0,0.0,0.0,,70,70,1.0,172,172,4TH + HOUSTON,-85.30189
63,13.0,Route #13,INBOUND,,Route #13,,,Bus,770,172,4TH/HOUSTON,E,0,,,,,0.0,2.1470112,2.834943182,0,0,30.0,2,5,0.1666666667,0,0,0,0.0,0,0,240.0,17,36.499190399999996,0,0,0,0,0,0,0,7.0,0.0,0.0,0.0,35.0513,-85.301885,0,35.0513,-85.301888,0.0,0.0,0.0,,8,8,1.0,172,172,4TH + HOUSTON,-85.30189
64,15.0,Route #15,INBOUND,,Route #15,,,Bus,350,172,4TH/HOUSTON,E,0,,,,,0.0,2.1470112,3.001704545,0,0,30.0,2,4,0.1333333333,0,0,0,0.0,0,0,120.0,9,19.3231008,0,0,0,0,0,0,0,7.0,0.0,0.0,0.0,35.0513,-85.301885,0,35.0513,-85.301888,0.0,0.0,0.0,,4,4,1.0,172,172,4TH + HOUSTON,-85.30189
65,19.0,Route #19,OUTBOUND,,Route #19,,,Bus,120,172,4TH/HOUSTON,E,0,,,,,0.0075,0.5635751999999999,1.785965909,0,0,30.0,5,12,0.4,0,0,0,0.15,0,3,600.0,102,57.484670400000006,0,0,3,0,0,0,0,17.0,0.0,0.0,0.0,35.0513,-85.301885,0,35.05130495,-85.3018838,0.0,0.0,0.0,,20,20,2.0,172,172,4TH + HOUSTON,-85.30189
66,21.0,Route #21,INBOUND,,Route #21,,,Bus,330,172,4TH/HOUSTON,E,0,,,,,0.0,2.1470112,3.335227273,0,0,31.0,2,5,0.15625,0,0,0,0.0,0,0,248.0,20,42.940224,0,0,0,0,0,0,0,8.0,0.0,0.0,0.0,35.0513,-85.301885,0,35.0513,-85.301888,0.0,0.0,0.0,,8,8,1.0,172,172,4TH + HOUSTON,-85.30189
67,28.0,Route #28,INBOUND,,Route #28,Special,,Bus,280,172,4TH/HOUSTON,E,0,,,,,0.0,2.0881848,3.676357323,0,0,30.0,2,4,0.1333333333,0,0,0,0.0,0,0,180.0,17,35.4991416,0,0,0,0,0,0,0,9.0,0.0,0.0,0.0,35.0513,-85.301885,0,35.0513,-85.301888,0.0,0.0,0.0,,6,6,1.0,172,172,4TH + HOUSTON,-85.30189
68,28.0,Route #28,OUTBOUND,,Route #28,Special,,Bus,220,172,4TH/HOUSTON,E,0,,,,,0.0,2.0881848,4.3251262630000005,0,0,30.0,3,8,0.2666666667,0,0,0,0.0,0,0,180.0,20,41.763696,0,0,0,0,0,0,0,11.0,0.0,0.0,0.0,35.0513,-85.301885,0,35.0513,-85.301888,0.0,0.0,0.0,,6,6,1.0,172,172,4TH + HOUSTON,-85.30189
69,1.4,Route #1 am HC:1,OUTBOUND,,Route #1,,,Bus,110,100133,Mkt 4th,X,-1,,,,,1.176428571,,,0,0,30.0,1,5,0.15625,0,0,0,0.0,0,0,4058.0,255,,0,0,0,0,0,0,0,6.0,1.0,5.0,126.0,35.052659999999996,-85.309722,0,35.05143595,-85.3097343,0.004592422503,0.0,0.955,,134,134,447.0,1351,1351,MARKET + 4TH,-85.30972
70,4.0,Route #4,INBOUND,,Route #4,,,Bus,1220,100133,Mkt 4th,X,-1,,,,,1.8968181819999999,,,0,0,30.0,2,11,0.34375,0,0,0,0.0,0,0,5688.0,550,,0,0,0,0,0,0,0,9.0,5.0,21.0,154.0,35.052659999999996,-85.309722,0,35.05216526,-85.30865013,0.009655199873,0.0,0.856,,184,184,368.0,1351,1351,MARKET + 4TH,-85.30972
71,4.0,Route #4,OUTBOUND,,Route #4,,,Bus,110,100133,Mkt 4th,X,-1,,,,,1.48484375,,,0,0,30.0,1,5,0.15625,0,0,0,0.0,0,0,5652.0,322,,0,0,0,0,0,0,0,5.0,2.0,23.0,158.0,35.052659999999996,-85.309722,0,35.05131154,-85.30906649,0.014335044209999998,0.0,0.863,,183,183,530.0,1351,1351,MARKET + 4TH,-85.30972
72,7.0,Route #7,INBOUND,,Route #7,,,Bus,240,100133,Mkt 4th,X,-1,,,,,,,,0,0,30.0,1,7,0.23333333329999997,0,0,0,0.0,0,0,1020.0,51,,0,0,0,0,0,0,0,5.0,0.0,1.0,33.0,35.052659999999996,-85.309722,0,35.05246785,-85.30970762,0.0,0.0,0.971,,34,34,70.0,1351,1351,MARKET + 4TH,-85.30972
73,7.0,Route #7,OUTBOUND,,Route #7,,,Bus,10,100133,Mkt 4th,X,-1,,,,,,,,0,0,30.0,3,5,0.15625,0,0,0,0.0,0,0,938.0,101,,0,0,0,0,0,0,0,10.0,2.0,2.0,27.0,35.052659999999996,-85.309722,0,35.05156277,-85.3097701,0.0,0.0,0.871,,31,31,401.0,1351,1351,MARKET + 4TH,-85.30972
74,10.1,Route #10A,INBOUND,,Route #10,,,Bus,580,100133,Mkt 4th,X,-1,,,,,2.017777778,,,0,0,30.0,3,14,0.4375,0,0,0,0.0,0,0,2936.0,366,,0,0,0,0,0,0,0,12.0,7.0,8.0,81.0,35.052659999999996,-85.309722,0,35.05241198,-85.30846659,0.0,0.0,0.8440000000000001,,97,97,386.0,1351,1351,MARKET + 4TH,-85.30972
75,10.9,Route #10G 58:10G,INBOUND,,Route #10,,,Bus,1050,100133,Mkt 4th,X,-1,,,,,1.679473684,,,0,0,30.0,3,10,0.3125,0,0,0,0.0,0,0,2940.0,345,,0,0,0,0,0,0,0,11.0,4.0,4.0,89.0,35.052659999999996,-85.309722,0,35.05255089,-85.30882719,0.0,0.0,0.9179999999999999,,97,97,270.0,1351,1351,MARKET + 4TH,-85.30972
76,19.0,Route #19,INBOUND,,Route #19,,,Bus,880,100133,Mkt 4th,X,-1,,,,,1.3455555559999999,,,0,0,30.0,3,6,0.2,0,0,0,0.0,0,0,600.0,62,,0,0,0,0,0,0,0,10.0,4.0,3.0,11.0,35.052659999999996,-85.309722,0,35.05216256,-85.30979056,0.0,0.0,0.611,,20,20,183.0,1351,1351,MARKET + 4TH,-85.30972
77,21.0,Route #21,INBOUND,,Route #21,,,Bus,390,100133,Mkt 4th,X,-1,,,,,,,,0,0,30.0,2,6,0.1875,0,0,0,0.0,0,0,774.0,50,,0,0,0,0,0,0,0,6.0,0.0,1.0,24.0,35.052659999999996,-85.309722,0,35.05232912,-85.31007632,0.0,0.0,0.96,,25,25,161.0,1351,1351,MARKET + 4TH,-85.30972
78,780.0,3:3,INBOUND,,,,,,250,100133,Mkt 4th,X,-1,,,,,0.2685714286,,,0,0,30.0,1,4,0.1333333333,0,0,0,0.0,0,0,450.0,24,,0,0,0,0,0,0,0,5.0,0.0,1.0,14.0,35.052659999999996,-85.309722,0,35.0519922,-85.30963767,0.0,0.0,0.9329999999999999,,15,15,245.0,1351,1351,MARKET + 4TH,-85.30972
79,780.0,3:3,OUTBOUND,,,,,,30,100133,Mkt 4th,X,-1,,,,,1.1625,,,0,0,30.0,0,2,0.06666666667,0,0,0,0.0,0,0,210.0,4,,0,0,0,0,0,0,0,1.0,0.0,0.0,7.0,35.052659999999996,-85.309722,0,35.05112329,-85.309663,0.0,0.0,1.0,,7,7,562.0,1351,1351,MARKET + 4TH,-85.30972
80,1.4,Route #1 am HC:1,OUTBOUND,,Route #1,,,Bus,150,1579,MARKET/FIRST TENNESSEE BANK(7TH),S,0,,,,,0.1288059701,0.2420112,0.5622371099,0,0,30.0,3,16,0.5,0,0,0,0.365,64,26,4058.0,501,121.2476112,3,64,17,0,10,0,0,12.0,0.0,0.0,0.0,35.048120000000004,-85.309547,0,35.04813498,-85.30953269,0.004592422503,0.0,0.0,,134,134,7.0,1579,1579,MARKET + FIRST TENNESSEE BANK(7TH),-85.30955
81,2.0,Route #2,INBOUND,,Route #2,,,Bus,150,1579,MARKET/FIRST TENNESSEE BANK(7TH),S,0,,,,,0.0,0.2420112,0.1879734848,0,0,32.0,1,3,0.09375,0,0,0,0.0,0,0,128.0,5,1.210056,0,0,0,0,0,0,0,3.0,0.0,0.0,0.0,35.048120000000004,-85.309547,0,35.048119,-85.309547,0.0,0.0,0.0,,4,4,0.0,1579,1579,MARKET + FIRST TENNESSEE BANK(7TH),-85.30955
82,4.0,Route #4,INBOUND,,Route #4,,,Bus,1270,1579,MARKET/FIRST TENNESSEE BANK(7TH),S,0,,,,,0.01742424242,0.2420112,0.3922924901,0,0,30.0,2,7,0.21875,0,0,0,0.07200000000000001,0,7,2120.0,180,43.562016,0,0,5,0,2,0,0,8.0,0.0,0.0,0.0,35.048120000000004,-85.309547,0,35.04812402,-85.30954588,0.01173222912,0.0,0.0,,69,69,2.0,1579,1579,MARKET + FIRST TENNESSEE BANK(7TH),-85.30955
83,4.0,Route #4,OUTBOUND,,Route #4,,,Bus,150,1579,MARKET/FIRST TENNESSEE BANK(7TH),S,0,,,,,0.1382777778,0.2420112,0.8184550422,0,0,30.0,5,21,0.65625,0,0,0,0.316,107,10,5652.0,996,241.04315519999997,1,107,6,0,4,0,0,17.0,0.0,0.0,0.0,35.048120000000004,-85.309547,0,35.04812833,-85.30953766,0.014335044209999998,0.0,0.0,,183,183,4.0,1579,1579,MARKET + FIRST TENNESSEE BANK(7TH),-85.30955
84,7.0,Route #7,OUTBOUND,,Route #7,,,Bus,50,1579,MARKET/FIRST TENNESSEE BANK(7TH),S,0,,,,,0.21032258059999998,0.2420112,0.3201612903,0,0,30.0,2,5,0.15625,0,0,0,0.354,5,13,938.0,66,15.9727392,3,5,10,0,6,0,0,7.0,0.0,0.0,0.0,35.048120000000004,-85.309547,0,35.04812974,-85.30953784,0.0,0.0,0.0,,31,31,4.0,1579,1579,MARKET + FIRST TENNESSEE BANK(7TH),-85.30955
85,9.0,Route #9,OUTBOUND,,Route #9,,,Bus,150,1579,MARKET/FIRST TENNESSEE BANK(7TH),S,0,,,,,0.12757281550000002,0.2420112,0.7737672176,0,0,30.0,5,17,0.53125,0,0,0,0.22699999999999998,38,6,3328.0,566,136.9783392,1,38,11,0,1,0,0,17.0,0.0,0.0,0.0,35.048120000000004,-85.309547,0,35.04813048,-85.30953629,0.002898550725,0.0,0.0,,110,110,5.0,1579,1579,MARKET + FIRST TENNESSEE BANK(7TH),-85.30955
86,10.1,Route #10A,INBOUND,,Route #10,,,Bus,620,1579,MARKET/FIRST TENNESSEE BANK(7TH),S,0,,,,,0.03153846153999999,0.2420112,0.2617704826,0,0,30.0,1,5,0.15625,0,0,0,0.222,0,6,812.0,47,11.3745264,0,0,6,0,0,0,0,5.0,0.0,0.0,0.0,35.048120000000004,-85.309547,0,35.04812331,-85.30953858,0.0,0.0,0.0,,27,27,3.0,1579,1579,MARKET + FIRST TENNESSEE BANK(7TH),-85.30955
87,13.0,Route #13,OUTBOUND,,Route #13,,,Bus,150,1579,MARKET/FIRST TENNESSEE BANK(7TH),S,0,,,,,0.14875,0.2420112,0.7812361419,0,0,30.0,5,16,0.5333333333,0,0,0,0.439,27,3,1230.0,213,51.5483856,0,27,1,0,2,0,0,17.0,0.0,0.0,0.0,35.048120000000004,-85.309547,0,35.04814263,-85.30953785,0.0,0.0,0.0,,41,41,9.0,1579,1579,MARKET + FIRST TENNESSEE BANK(7TH),-85.30955
88,16.4,Route #16 In:16,INBOUND,,Route #16,,,Bus,590,1579,MARKET/FIRST TENNESSEE BANK(7TH),S,0,,,,,0.05,0.2420112,0.3072957839,0,0,30.0,2,11,0.34375,0,0,0,0.26,1,11,702.0,47,11.3745264,0,1,3,0,8,0,0,6.0,0.0,0.0,0.0,35.048120000000004,-85.309547,0,35.04818568,-85.30954359,0.0,0.0,0.0,,23,23,24.0,1579,1579,MARKET + FIRST TENNESSEE BANK(7TH),-85.30955
89,19.0,Route #19,INBOUND,,Route #19,,,Bus,920,1579,MARKET/FIRST TENNESSEE BANK(7TH),S,0,,,,,0.05705882352999999,0.2420112,0.1804545455,0,0,30.0,1,4,0.1333333333,0,0,0,0.1,0,2,600.0,24,5.8082688,0,0,2,0,0,0,0,4.0,0.0,0.0,0.0,35.048120000000004,-85.309547,0,35.04812676,-85.30954441,0.0,0.0,0.0,,20,20,3.0,1579,1579,MARKET + FIRST TENNESSEE BANK(7TH),-85.30955
90,21.0,Route #21,OUTBOUND,,Route #21,,,Bus,160,1579,MARKET/FIRST TENNESSEE BANK(7TH),S,0,,,,,0.2310869565,0.2420112,0.8009305006999999,1,0,31.0,5,15,0.46875,0,0,0,0.423,108,5,2900.0,490,118.58548799999998,1,68,5,0,0,0,0,16.0,0.0,0.0,0.0,35.048120000000004,-85.309547,0,35.04812255,-85.30953085,0.0,0.0,0.0,,92,92,5.0,1579,1579,MARKET + FIRST TENNESSEE BANK(7TH),-85.30955
91,34.0,Route #34,INBOUND,,Route #34,,,Bus,90,1579,MARKET/FIRST TENNESSEE BANK(7TH),S,0,,,,,0.0,0.2420112,0.3308333333,0,0,,2,5,,0,0,0,0.0,0,0,,11,2.6621232000000004,0,0,0,0,0,0,0,,0.0,0.0,0.0,35.048120000000004,-85.309547,0,35.048119,-85.309547,0.0,0.0,0.0,,5,5,0.0,1579,1579,MARKET + FIRST TENNESSEE BANK(7TH),-85.30955
92,1.4,Route #1 am HC:1,OUTBOUND,,Route #1,,,Bus,180,17,MARKET/11TH,S,0,,,,,0.03940298507,0.0874776,0.25677154,0,0,30.0,4,18,0.5625,0,0,0,0.16399999999999998,16,13,4058.0,633,55.3733208,0,16,8,0,5,0,0,15.0,0.0,0.0,0.0,35.04425,-85.309435,0,35.04421781,-85.30942931,0.004592422503,0.0,0.0,,134,134,12.0,17,17,MARKET + 11TH,-85.30944000000001
93,1.4,Route #1 am HC:1,OUTBOUND,,Route #1,,,Bus,180,17,MARKET/11TH,S,0,,,,,0.03940298507,0.0874776,0.25677154,0,0,30.0,4,18,0.5625,0,0,0,0.16399999999999998,16,13,4058.0,633,55.3733208,0,16,8,0,5,0,0,15.0,0.0,0.0,0.0,35.04425,-85.309435,0,35.04421781,-85.30942931,0.004592422503,0.0,0.0,,134,134,12.0,1028,1028,HOLTZCLAW + CUMBERLAND,-85.27951999999999
94,2.0,Route #2,INBOUND,,Route #2,,,Bus,180,17,MARKET/11TH,S,0,,,,,0.0,0.0874776,0.06794507576,0,0,32.0,1,3,0.09375,0,0,0,0.0,0,0,128.0,5,0.437388,0,0,0,0,0,0,0,3.0,0.0,0.0,0.0,35.04425,-85.309435,0,35.04425,-85.309433,0.0,0.0,0.0,,4,4,1.0,17,17,MARKET + 11TH,-85.30944000000001
95,2.0,Route #2,INBOUND,,Route #2,,,Bus,180,17,MARKET/11TH,S,0,,,,,0.0,0.0874776,0.06794507576,0,0,32.0,1,3,0.09375,0,0,0,0.0,0,0,128.0,5,0.437388,0,0,0,0,0,0,0,3.0,0.0,0.0,0.0,35.04425,-85.309435,0,35.04425,-85.309433,0.0,0.0,0.0,,4,4,1.0,1028,1028,HOLTZCLAW + CUMBERLAND,-85.27951999999999
96,4.0,Route #4,INBOUND,,Route #4,,,Bus,1300,17,MARKET/11TH,S,0,,,,,0.006615384615,0.0874776,0.1189531181,0,0,30.0,2,7,0.21875,0,0,0,0.07200000000000001,0,6,2120.0,151,13.2091176,0,0,4,0,2,0,0,7.0,0.0,0.0,0.0,35.04425,-85.309435,0,35.04423972,-85.30943006,0.01173222912,0.0,0.0,,69,69,4.0,17,17,MARKET + 11TH,-85.30944000000001
97,4.0,Route #4,INBOUND,,Route #4,,,Bus,1300,17,MARKET/11TH,S,0,,,,,0.006615384615,0.0874776,0.1189531181,0,0,30.0,2,7,0.21875,0,0,0,0.07200000000000001,0,6,2120.0,151,13.2091176,0,0,4,0,2,0,0,7.0,0.0,0.0,0.0,35.04425,-85.309435,0,35.04423972,-85.30943006,0.01173222912,0.0,0.0,,69,69,4.0,1028,1028,HOLTZCLAW + CUMBERLAND,-85.27951999999999
98,4.0,Route #4,OUTBOUND,,Route #4,,,Bus,180,17,MARKET/11TH,S,0,,,,,0.056888888889999996,0.0874776,0.378116203,0,0,30.0,6,24,0.75,0,0,0,0.191,35,16,5652.0,1273,111.3589848,0,35,15,0,1,0,0,22.0,0.0,0.0,0.0,35.04425,-85.309435,0,35.04422054,-85.30943185,0.014335044209999998,0.0,0.0,,183,183,11.0,17,17,MARKET + 11TH,-85.30944000000001
99,4.0,Route #4,OUTBOUND,,Route #4,,,Bus,180,17,MARKET/11TH,S,0,,,,,0.056888888889999996,0.0874776,0.378116203,0,0,30.0,6,24,0.75,0,0,0,0.191,35,16,5652.0,1273,111.3589848,0,35,15,0,1,0,0,22.0,0.0,0.0,0.0,35.04425,-85.309435,0,35.04422054,-85.30943185,0.014335044209999998,0.0,0.0,,183,183,11.0,1028,1028,HOLTZCLAW + CUMBERLAND,-85.27951999999999
100,7.0,Route #7,OUTBOUND,,Route #7,,,Bus,250,1028,HOLTZCLAW/CUMBERLAND,N,0,,,,,0.005806451613,0.210312,0.1770527859,0,0,30.0,1,5,0.15625,0,0,0,0.064,2,1,938.0,42,8.833103999999999,0,2,1,0,0,0,0,4.0,0.0,0.0,0.0,35.04425,-85.279522,0,35.04425213,-85.27952648,0.0,0.0,0.0,,31,31,2.0,17,17,MARKET + 11TH,-85.30944000000001
101,7.0,Route #7,OUTBOUND,,Route #7,,,Bus,250,1028,HOLTZCLAW/CUMBERLAND,N,0,,,,,0.005806451613,0.210312,0.1770527859,0,0,30.0,1,5,0.15625,0,0,0,0.064,2,1,938.0,42,8.833103999999999,0,2,1,0,0,0,0,4.0,0.0,0.0,0.0,35.04425,-85.279522,0,35.04425213,-85.27952648,0.0,0.0,0.0,,31,31,2.0,1028,1028,HOLTZCLAW + CUMBERLAND,-85.27951999999999
102,9.0,Route #9,OUTBOUND,,Route #9,,,Bus,180,17,MARKET/11TH,S,0,,,,,0.109,0.0874776,0.3483729339,0,0,30.0,6,21,0.65625,0,0,0,0.22699999999999998,19,18,3328.0,705,61.671707999999995,1,19,14,0,4,0,0,21.0,0.0,0.0,0.0,35.04425,-85.309435,0,35.04421005,-85.30943297,0.002898550725,0.0,0.0,,110,110,15.0,17,17,MARKET + 11TH,-85.30944000000001
103,9.0,Route #9,OUTBOUND,,Route #9,,,Bus,180,17,MARKET/11TH,S,0,,,,,0.109,0.0874776,0.3483729339,0,0,30.0,6,21,0.65625,0,0,0,0.22699999999999998,19,18,3328.0,705,61.671707999999995,1,19,14,0,4,0,0,21.0,0.0,0.0,0.0,35.04425,-85.309435,0,35.04421005,-85.30943297,0.002898550725,0.0,0.0,,110,110,15.0,1028,1028,HOLTZCLAW + CUMBERLAND,-85.27951999999999
104,10.1,Route #10A,INBOUND,,Route #10,,,Bus,650,17,MARKET/11TH,S,0,,,,,0.003076923077,0.0874776,0.07247474747,0,0,30.0,1,4,0.125,0,0,0,0.037000000000000005,0,1,812.0,36,3.1491936000000003,0,0,1,0,0,0,0,4.0,0.0,0.0,0.0,35.04425,-85.309435,0,35.04424415,-85.30943269,0.0,0.0,0.0,,27,27,2.0,17,17,MARKET + 11TH,-85.30944000000001
105,10.1,Route #10A,INBOUND,,Route #10,,,Bus,650,17,MARKET/11TH,S,0,,,,,0.003076923077,0.0874776,0.07247474747,0,0,30.0,1,4,0.125,0,0,0,0.037000000000000005,0,1,812.0,36,3.1491936000000003,0,0,1,0,0,0,0,4.0,0.0,0.0,0.0,35.04425,-85.309435,0,35.04424415,-85.30943269,0.0,0.0,0.0,,27,27,2.0,1028,1028,HOLTZCLAW + CUMBERLAND,-85.27951999999999
106,16.4,Route #16 In:16,INBOUND,,Route #16,,,Bus,620,17,MARKET/11TH,S,0,,,,,0.06318181818,0.0874776,0.08035243742,0,0,30.0,1,7,0.21875,0,0,0,0.217,0,8,702.0,34,2.9742384,1,0,7,0,1,0,0,4.0,0.0,0.0,0.0,35.04425,-85.309435,0,35.04421923,-85.30943505,0.0,0.0,0.0,,23,23,11.0,17,17,MARKET + 11TH,-85.30944000000001
107,16.4,Route #16 In:16,INBOUND,,Route #16,,,Bus,620,17,MARKET/11TH,S,0,,,,,0.06318181818,0.0874776,0.08035243742,0,0,30.0,1,7,0.21875,0,0,0,0.217,0,8,702.0,34,2.9742384,1,0,7,0,1,0,0,4.0,0.0,0.0,0.0,35.04425,-85.309435,0,35.04421923,-85.30943505,0.0,0.0,0.0,,23,23,11.0,1028,1028,HOLTZCLAW + CUMBERLAND,-85.27951999999999
108,19.0,Route #19,INBOUND,,Route #19,,,Bus,950,17,MARKET/11TH,S,0,,,,,0.0,0.0874776,0.05979166667,0,0,30.0,1,3,0.1,0,0,0,0.0,0,0,300.0,11,0.9622536,0,0,0,0,0,0,0,3.0,0.0,0.0,0.0,35.04425,-85.309435,0,35.04425,-85.309433,0.0,0.0,0.0,,10,10,1.0,17,17,MARKET + 11TH,-85.30944000000001
109,19.0,Route #19,INBOUND,,Route #19,,,Bus,950,17,MARKET/11TH,S,0,,,,,0.0,0.0874776,0.05979166667,0,0,30.0,1,3,0.1,0,0,0,0.0,0,0,300.0,11,0.9622536,0,0,0,0,0,0,0,3.0,0.0,0.0,0.0,35.04425,-85.309435,0,35.04425,-85.309433,0.0,0.0,0.0,,10,10,1.0,1028,1028,HOLTZCLAW + CUMBERLAND,-85.27951999999999
110,19.0,Route #19,OUTBOUND,,Route #19,,,Bus,220,1028,HOLTZCLAW/CUMBERLAND,N,0,,,,,0.01,0.210312,0.6142045454999999,0,0,30.0,4,12,0.4,0,0,0,0.05,0,2,600.0,94,19.769328,0,0,1,0,1,0,0,15.0,0.0,0.0,0.0,35.04425,-85.279522,0,35.0442529,-85.2795279,0.0,0.0,0.0,,20,20,2.0,17,17,MARKET + 11TH,-85.30944000000001
111,19.0,Route #19,OUTBOUND,,Route #19,,,Bus,220,1028,HOLTZCLAW/CUMBERLAND,N,0,,,,,0.01,0.210312,0.6142045454999999,0,0,30.0,4,12,0.4,0,0,0,0.05,0,2,600.0,94,19.769328,0,0,1,0,1,0,0,15.0,0.0,0.0,0.0,35.04425,-85.279522,0,35.0442529,-85.2795279,0.0,0.0,0.0,,20,20,2.0,1028,1028,HOLTZCLAW + CUMBERLAND,-85.27951999999999
112,34.0,Route #34,INBOUND,,Route #34,,,Bus,120,17,MARKET/11TH,S,0,,,,,0.0,0.0874776,0.1195833333,0,0,,2,5,,0,0,0,0.0,0,0,,11,0.9622536,0,0,0,0,0,0,0,,0.0,0.0,0.0,35.04425,-85.309435,0,35.04425,-85.309433,0.0,0.0,0.0,,5,5,1.0,17,17,MARKET + 11TH,-85.30944000000001
113,34.0,Route #34,INBOUND,,Route #34,,,Bus,120,17,MARKET/11TH,S,0,,,,,0.0,0.0874776,0.1195833333,0,0,,2,5,,0,0,0,0.0,0,0,,11,0.9622536,0,0,0,0,0,0,0,,0.0,0.0,0.0,35.04425,-85.309435,0,35.04425,-85.309433,0.0,0.0,0.0,,5,5,1.0,1028,1028,HOLTZCLAW + CUMBERLAND,-85.27951999999999
114,1.4,Route #1 am HC:1,OUTBOUND,,Route #1,,,Bus,250,22,MARKET/17TH,S,0,,,,,0.0,0.21396959999999998,0.6439365672,0,0,30.0,4,21,0.65625,0,0,0,0.022000000000000002,1,2,4058.0,649,138.86627040000002,0,1,1,0,2,0,0,15.0,0.0,0.0,0.0,35.03465,-85.30826,0,35.034649,-85.308258,0.004592422503,0.0,0.0,,134,134,1.0,22,22,MARKET + 17TH,-85.30826
115,4.0,Route #4,OUTBOUND,,Route #4,,,Bus,1140,22,MARKET/17TH,S,0,,,,,0.0,0.21396959999999998,0.4321022727,0,0,30.0,3,6,0.2,0,0,0,0.0,0,0,120.0,13,2.7816047999999998,0,0,0,0,0,0,0,10.0,0.0,0.0,0.0,35.03465,-85.30826,0,35.034649,-85.308258,0.0,0.0,0.0,,4,4,1.0,22,22,MARKET + 17TH,-85.30826
116,2.0,Route #2,INBOUND,,Route #2,,,Bus,40,732,MARKET/CHAMBLISS,S,0,,,,,0.0,0.21336,0.17976373910000001,0,0,31.0,1,5,0.15625,0,0,0,0.0,0,0,1880.0,80,17.0688,0,0,0,0,0,0,0,4.0,0.0,0.0,0.0,35.07031,-85.308768,0,35.070309,-85.308769,0.0,0.0,0.0,,59,59,0.0,230,230,STUART + CHAMBERLAIN,-85.24622
117,2.0,Route #2,INBOUND,,Route #2,,,Bus,40,732,MARKET/CHAMBLISS,S,0,,,,,0.0,0.21336,0.17976373910000001,0,0,31.0,1,5,0.15625,0,0,0,0.0,0,0,1880.0,80,17.0688,0,0,0,0,0,0,0,4.0,0.0,0.0,0.0,35.07031,-85.308768,0,35.070309,-85.308769,0.0,0.0,0.0,,59,59,0.0,732,732,MARKET + CHAMBLISS,-85.30877
118,2.0,Route #2,INBOUND,,Route #2,,,Bus,80,1839,MANUFACTURERS RD/CHEROKEE BLVD,W,0,,,,,0.0,2.670347634,2.9495570110000005,0,0,31.0,1,7,0.21875,0,0,0,0.10099999999999999,2,4,1880.0,105,280.0642608,0,2,3,0,1,0,0,5.0,0.0,0.0,0.0,35.06353,-85.310029,0,35.06353,-85.310028,0.0,0.0,0.0,,59,59,0.0,1839,1839,MANUFACTURERS RD + CHEROKEE BLVD,-85.31003
119,2.0,Route #2,INBOUND,,Route #2,,,Bus,110,1837,4TH STREET/MARKET STREET-IB,E,0,,,,,0.002181818182,0.1944624,0.21913841809999998,0,0,31.0,1,7,0.21875,0,0,0,0.033,4,2,1880.0,107,20.8074768,0,4,2,0,0,0,0,5.0,0.0,0.0,0.0,35.05222,-85.309839,0,35.05221956,-85.30983895,0.0,0.0,0.0,,59,59,0.0,503,503,4TH + WALNUT,-85.30766
120,2.0,Route #2,INBOUND,,Route #2,,,Bus,110,1837,4TH STREET/MARKET STREET-IB,E,0,,,,,0.002181818182,0.1944624,0.21913841809999998,0,0,31.0,1,7,0.21875,0,0,0,0.033,4,2,1880.0,107,20.8074768,0,4,2,0,0,0,0,5.0,0.0,0.0,0.0,35.05222,-85.309839,0,35.05221956,-85.30983895,0.0,0.0,0.0,,59,59,0.0,1837,1837,4TH STREET+ MARKET STREET-IB,-85.30984000000001
121,2.0,Route #2,INBOUND,,Route #2,,,Bus,220,807,HOUSTON/10TH,S,0,,,,,0.0,0.1237488,0.09611742424,0,0,32.0,1,3,0.09375,0,0,0,0.0,0,0,128.0,5,0.618744,0,0,0,0,0,0,0,3.0,0.0,0.0,0.0,35.04363,-85.306208,0,35.043628999999996,-85.306206,0.0,0.0,0.0,,4,4,1.0,807,807,HOUSTON + 10TH,-85.30621
122,4.0,Route #4,INBOUND,,Route #4,,,Bus,1340,807,HOUSTON/10TH,S,0,,,,,0.0032258064520000003,0.1237488,0.1593599034,0,0,30.0,2,5,0.15625,0,0,0,0.027999999999999997,0,3,2120.0,143,17.696078399999998,0,0,3,0,0,0,0,6.0,0.0,0.0,0.0,35.04363,-85.306208,0,35.04361484,-85.30619787,0.01173222912,0.0,0.0,,69,69,6.0,807,807,HOUSTON + 10TH,-85.30621
123,4.0,Route #4,OUTBOUND,,Route #4,,,Bus,220,807,HOUSTON/10TH,S,0,,,,,0.0,0.1237488,0.6585385982999999,0,0,30.0,8,25,0.78125,0,0,0,0.016,2,2,5532.0,1533,189.7069104,0,2,0,0,2,0,0,27.0,0.0,0.0,0.0,35.04363,-85.306208,0,35.043628999999996,-85.306206,0.014655380390000002,0.0,0.0,,179,179,1.0,807,807,HOUSTON + 10TH,-85.30621
124,7.0,Route #7,OUTBOUND,,Route #7,,,Bus,100,807,HOUSTON/10TH,S,0,,,,,0.0,0.13563599999999998,0.11418621699999999,0,0,30.0,1,6,0.1875,0,0,0,0.0,0,0,938.0,42,5.696712000000001,0,0,0,0,0,0,0,4.0,0.0,0.0,0.0,35.04363,-85.306208,0,35.043628999999996,-85.306206,0.0,0.0,0.0,,31,31,1.0,807,807,HOUSTON + 10TH,-85.30621
125,10.1,Route #10A,INBOUND,,Route #10,,,Bus,690,807,HOUSTON/10TH,S,0,,,,,0.0,0.1237488,0.09967732884,0,0,30.0,1,4,0.125,0,0,0,0.0,0,0,812.0,35,4.331208,0,0,0,0,0,0,0,4.0,0.0,0.0,0.0,35.04363,-85.306208,0,35.043628999999996,-85.306206,0.0,0.0,0.0,,27,27,1.0,807,807,HOUSTON + 10TH,-85.30621
126,16.4,Route #16 In:16,INBOUND,,Route #16,,,Bus,660,807,HOUSTON/10TH,S,0,,,,,0.0,0.1237488,0.09026679842,0,0,30.0,1,5,0.15625,0,0,0,0.0,0,0,702.0,27,3.3412176,0,0,0,0,0,0,0,3.0,0.0,0.0,0.0,35.04363,-85.306208,0,35.043628999999996,-85.306206,0.0,0.0,0.0,,23,23,1.0,807,807,HOUSTON + 10TH,-85.30621
127,19.0,Route #19,INBOUND,,Route #19,,,Bus,990,807,HOUSTON/10TH,S,0,,,,,0.0,0.1237488,0.08458333332999998,0,0,30.0,1,3,0.1,0,0,0,0.0,0,0,300.0,11,1.3612368000000001,0,0,0,0,0,0,0,3.0,0.0,0.0,0.0,35.04363,-85.306208,0,35.043628999999996,-85.306206,0.0,0.0,0.0,,10,10,1.0,807,807,HOUSTON + 10TH,-85.30621
128,2.0,Route #2,INBOUND,,Route #2,,,Bus,270,1872,MARKET/6TH,S,0,,,,,,,,0,0,31.0,1,5,0.15625,0,0,0,0.4,22,46,1752.0,97,,2,121,27,0,2,0,0,5.0,0.0,0.0,0.0,35.04977,-85.30965,0,35.05000607,-85.30962811,0.0,0.0,0.0,,55,55,86.0,1360,1360,3RD + CSAS,-85.29534
129,2.0,Route #2,INBOUND,,Route #2,,,Bus,270,1872,MARKET/6TH,S,0,,,,,,,,0,0,31.0,1,5,0.15625,0,0,0,0.4,22,46,1752.0,97,,2,121,27,0,2,0,0,5.0,0.0,0.0,0.0,35.04977,-85.30965,0,35.05000607,-85.30962811,0.0,0.0,0.0,,55,55,86.0,1872,1872,MARKET + 6TH,-85.30965
130,2.0,Route #2,OUTBOUND,,Route #2,,,Bus,40,100037,12thMar1,X,-1,,,,,0.7666666667,,,0,0,31.0,2,5,0.15625,0,0,0,0.0,0,0,1848.0,141,,0,0,0,0,0,0,0,7.0,,,,35.042,-85.30866999999999,0,35.04277805,-85.30913024,0.0,0.0,,,58,58,316.0,1713,1713,HOUSTON + MARKET,-85.30866999999999
131,2.0,Route #2,OUTBOUND,,Route #2,,,Bus,50,1713,HOUSTON/MARKET,W,0,,,,,0.17666666670000003,0.131064,-0.027146464649999997,0,0,32.0,0,0,0.0,0,0,0,0.33299999999999996,2,2,96.0,-1,-0.131064,0,2,2,0,0,0,0,-1.0,0.0,0.0,0.0,35.042,-85.30866999999999,0,35.04202933,-85.30865733,0.0,0.0,0.0,,3,3,11.0,1713,1713,HOUSTON + MARKET,-85.30866999999999
132,10.1,Route #10A,OUTBOUND,,Route #10,,,Bus,50,1713,HOUSTON/MARKET,W,0,,,,,,0.131064,0.016287878789999998,0,0,30.0,0,1,0.03333333333,0,0,0,0.0,0,0,150.0,1,0.131064,0,0,0,0,0,0,0,0.0,0.0,0.0,0.0,35.042,-85.30866999999999,0,,,0.0,0.0,0.0,,5,5,,1713,1713,HOUSTON + MARKET,-85.30866999999999
133,10.6,Route #10C,OUTBOUND,,Route #10,,,Bus,50,1713,HOUSTON/MARKET,W,0,,,,,1.625,0.131064,0.033316115699999996,0,0,30.0,0,2,0.0625,0,0,0,0.136,7,5,664.0,9,1.179576,0,6,4,1,1,0,0,1.0,0.0,0.0,0.0,35.042,-85.30866999999999,0,35.04204575,-85.308613,0.0,0.0,0.0,,22,22,24.0,1713,1713,HOUSTON + MARKET,-85.30866999999999
134,10.6,Route #10C,OUTBOUND,,Route #10,,,Bus,60,100037,12thMar1,X,-1,,,,,,,,0,0,30.0,3,5,0.1666666667,0,0,0,0.0,0,0,300.0,36,,0,0,0,0,0,0,0,12.0,,,,35.042,-85.30866999999999,0,35.042910299999996,-85.3090601,0.0,0.0,,,10,10,352.0,1713,1713,HOUSTON + MARKET,-85.30866999999999
135,10.9,Route #10G 58:10G,OUTBOUND,,Route #10,,,Bus,50,1713,HOUSTON/MARKET,W,0,,,,,0.0,0.131064,0.037587412589999994,0,0,30.0,0,4,0.125,0,0,0,0.076,1,0,400.0,6,0.786384,0,1,1,0,0,0,0,1.0,0.0,0.0,0.0,35.042,-85.30866999999999,0,35.042,-85.30866999999999,0.0,0.0,0.0,,13,13,0.0,1713,1713,HOUSTON + MARKET,-85.30866999999999
136,16.4,Route #16 In:16,OUTBOUND,,Route #16,,,Bus,50,1713,HOUSTON/MARKET,W,0,,,,,0.6622222222,0.131064,0.04222783389,0,0,30.0,0,5,0.15625,0,0,0,0.259,7,4,822.0,14,1.8348959999999999,0,7,5,0,0,0,0,1.0,0.0,0.0,0.0,35.042,-85.30866999999999,0,35.04205474,-85.30860959,0.0,0.0,0.0,,27,27,27.0,1713,1713,HOUSTON + MARKET,-85.30866999999999
137,2.0,Route #2,OUTBOUND,,Route #2,,,Bus,140,1458,MANNING/MAY,W,0,,,,,0.04293103448,0.0536448,0.03333333333,0,0,31.0,1,5,0.15625,0,0,0,0.172,4,7,1848.0,58,3.1113984,0,4,6,0,1,0,0,3.0,0.0,0.0,0.0,35.06599,-85.3119,0,35.06599555,-85.31188419,0.0,0.0,0.0,,58,58,5.0,1458,1458,MANNING + MAY,-85.3119
138,2.0,Route #2,OUTBOUND,,Route #2,,,Bus,140,1458,MANNING/MAY,W,0,,,,,0.04293103448,0.0536448,0.03333333333,0,0,31.0,1,5,0.15625,0,0,0,0.172,4,7,1848.0,58,3.1113984,0,4,6,0,1,0,0,3.0,0.0,0.0,0.0,35.06599,-85.3119,0,35.06599555,-85.31188419,0.0,0.0,0.0,,58,58,5.0,1825,1825,MANNING + SPEARS AVE,-85.31246999999999
139,2.0,Route #2,OUTBOUND,,Route #2,,,Bus,170,1694,CHEROKEE/CHILHOWIE,W,0,,,,,0.0,0.1072896,0.06551724138,0,0,31.0,0,5,0.15625,0,0,0,0.017,0,1,1848.0,57,6.1155072,0,0,1,0,0,0,0,3.0,0.0,0.0,0.0,35.06758,-85.31553000000001,0,35.067581,-85.315529,0.0,0.0,0.0,,58,58,0.0,1694,1694,CHEROKEE + CHILHOWIE,-85.31553000000001
140,4.0,Route #4,INBOUND,,Route #4,,,Bus,270,1919,GREENWAY VIEW DR/WALMART,S,0,,,,,1.553333333,0.7354824000000001,3.5335110889999997,1,0,30.0,7,20,0.625,0,0,0,0.541,311,98,5532.0,1384,1017.907642,11,310,80,1,20,0,0,25.0,0.0,0.0,0.0,35.00837,-85.20682,0,35.008369099999996,-85.20683893,0.009924898193,0.0,0.0,,179,179,6.0,115,115,PIROLA + POST OFFICE,-85.32146999999999
141,4.0,Route #4,INBOUND,,Route #4,,,Bus,270,1919,GREENWAY VIEW DR/WALMART,S,0,,,,,1.553333333,0.7354824000000001,3.5335110889999997,1,0,30.0,7,20,0.625,0,0,0,0.541,311,98,5532.0,1384,1017.907642,11,310,80,1,20,0,0,25.0,0.0,0.0,0.0,35.00837,-85.20682,0,35.008369099999996,-85.20683893,0.009924898193,0.0,0.0,,179,179,6.0,1919,949,GREENWAY VIEW DR + WALMART,-85.20682
142,4.0,Route #4,INBOUND,,Route #4,,,Bus,300,1889,EASTGATE LOOP IB 2ND STOP,W,0,,,,,0.02713483146,0.3791712,2.12440325,0,0,30.0,9,24,0.75,0,0,0,0.195,39,11,5532.0,1614,611.9823167999999,0,39,6,0,5,0,0,29.0,0.0,0.0,0.0,35.00943,-85.21285999999999,0,35.00952624,-85.21299336,0.009924898193,0.0,0.0,,179,179,53.0,1889,1889,EASTGATE LOOP IB 2ND STOP,-85.21285999999999
143,4.0,Route #4,INBOUND,,Route #4,,,Bus,440,966,BRAINERD RD/MANOR,N,0,,,,,0.029831460669999997,0.1871472,1.170674623,0,0,30.0,10,25,0.78125,0,0,0,0.139,28,9,5532.0,1802,337.2392544,0,28,6,0,3,0,0,32.0,0.0,0.0,0.0,35.02019,-85.24029300000001,0,35.02018753,-85.2402953,0.009924898193,0.0,0.0,,179,179,1.0,966,966,BRAINERD RD + MANOR,-85.24029
144,4.0,Route #4,INBOUND,,Route #4,,,Bus,640,983,MCCALLIE AVE/BEECH,W,0,,,,,0.006292134830999999,0.1316736,0.7898425597,0,0,30.0,9,26,0.8125,0,0,0,0.11699999999999999,5,30,5532.0,1728,227.5319808,0,5,19,0,12,0,0,31.0,0.0,0.0,0.0,35.03535,-85.273117,0,35.03535502,-85.27312459999999,0.009924898193,0.0,0.0,,179,179,3.0,983,983,MCCALLIE AVE + BEECH,-85.27311999999999
145,4.0,Route #4,INBOUND,,Route #4,,,Bus,640,983,MCCALLIE AVE/BEECH,W,0,,,,,0.006292134830999999,0.1316736,0.7898425597,0,0,30.0,9,26,0.8125,0,0,0,0.11699999999999999,5,30,5532.0,1728,227.5319808,0,5,19,0,12,0,0,31.0,0.0,0.0,0.0,35.03535,-85.273117,0,35.03535502,-85.27312459999999,0.009924898193,0.0,0.0,,179,179,3.0,1193,1193,MAIN + ROSSVILLE AVE,-85.30518000000001
146,9.0,Route #9,INBOUND,,Route #9,,,Bus,590,1193,MAIN/ROSSVILLE AVE,W,0,,,,,0.003577981651,0.19994879999999998,0.8529074529,0,0,30.0,6,26,0.8125,0,0,0,0.099,0,18,3358.0,762,152.3609856,0,0,4,0,8,0,0,22.0,0.0,0.0,0.0,35.03535,-85.305175,0,35.03535306,-85.30517950000001,0.0053235053240000005,0.0,0.0,,111,111,2.0,983,983,MCCALLIE AVE + BEECH,-85.27311999999999
147,9.0,Route #9,INBOUND,,Route #9,,,Bus,590,1193,MAIN/ROSSVILLE AVE,W,0,,,,,0.003577981651,0.19994879999999998,0.8529074529,0,0,30.0,6,26,0.8125,0,0,0,0.099,0,18,3358.0,762,152.3609856,0,0,4,0,8,0,0,22.0,0.0,0.0,0.0,35.03535,-85.305175,0,35.03535306,-85.30517950000001,0.0053235053240000005,0.0,0.0,,111,111,2.0,1193,1193,MAIN + ROSSVILLE AVE,-85.30518000000001
148,4.0,Route #4,INBOUND,,Route #4,,,Bus,650,984,MCCALLIE AVE/ORCHARD KNOB,W,0,,,,,0.010561797749999999,0.1524,0.9141696293000001,0,0,30.0,9,26,0.8125,0,0,0,0.083,9,9,5532.0,1728,263.3472,0,9,2,0,7,0,0,31.0,0.0,0.0,0.0,35.03583,-85.274435,0,35.03583147,-85.27442944,0.009924898193,0.0,0.0,,179,179,2.0,984,984,MCCALLIE AVE + ORCHARD KNOB,-85.27444
149,4.0,Route #4,INBOUND,,Route #4,,,Bus,660,985,MCCALLIE AVE/HAWTHORNE,W,0,,,,,0.01853932584,0.1368552,0.8271002623999999,0,0,30.0,9,27,0.84375,0,0,0,0.139,23,10,5532.0,1741,238.26490319999996,0,23,7,0,3,0,0,31.0,0.0,0.0,0.0,35.036390000000004,-85.27596199999999,0,35.036396200000006,-85.27596928,0.009924898193,0.0,0.0,,179,179,3.0,985,985,MCCALLIE AVE + HAWTHORNE,-85.27596
150,4.0,Route #4,INBOUND,,Route #4,,,Bus,710,990,MCCALLIE AVE/HOLTZCLAW,W,0,,,,,0.03446927374,0.2033016,1.215973633,0,0,30.0,9,28,0.875,0,0,0,0.15,12,21,5532.0,1723,350.2886568,0,12,11,0,10,0,0,31.0,0.0,0.0,0.0,35.03885,-85.282605,0,35.03886055,-85.28262608,0.009924898193,0.0,0.0,,179,179,7.0,990,990,MCCALLIE AVE + HOLTZCLAW,-85.28260999999999
151,4.0,Route #4,INBOUND,,Route #4,,,Bus,820,996,MCCALLIE AVE/LINDSAY,W,0,,,,,0.02631284916,0.2243328,1.1649906890000001,0,0,30.0,8,24,0.75,0,0,0,0.11699999999999999,1,31,5532.0,1496,335.60186880000003,1,1,16,0,16,0,0,27.0,0.0,0.0,0.0,35.04741,-85.305415,0,35.04740984,-85.30541177,0.009924898193,0.0,0.0,,179,179,1.0,996,996,MCCALLIE AVE + LINDSAY,-85.30542
152,4.0,Route #4,INBOUND,,Route #4,,,Bus,980,1019,E BRAINERD/GUNBARREL,W,0,,,,,0.0,0.1441704,0.4095238095,0,0,30.0,4,9,0.28125,0,0,0,0.0,0,0,216.0,32,4.6134528,0,0,0,0,0,0,0,14.0,0.0,0.0,0.0,35.01512,-85.163397,0,35.015121,-85.163399,0.0,0.0,0.0,,7,7,1.0,1019,1019,E BRAINERD + GUNBARREL,-85.1634
153,4.0,Route #4,INBOUND,,Route #4,,,Bus,1010,1022,E BRAINERD/BUNKER HILL,W,0,,,,,0.0,0.3313176,0.9411255411,0,0,30.0,4,9,0.28125,0,0,0,0.0,0,0,216.0,32,10.6021632,0,0,0,0,0,0,0,14.0,0.0,0.0,0.0,35.01773,-85.168403,0,35.017731,-85.16840400000001,0.0,0.0,0.0,,7,7,0.0,1022,1022,E BRAINERD + BUNKER HILL,-85.1684
154,4.0,Route #4,INBOUND,,Route #4,,,Bus,1200,569,BROAD/JACKS ALLEY,N,0,,,,,0.3160344828,0.1096018194,0.2239328772,0,0,30.0,3,11,0.34375,0,0,0,0.086,24,32,5748.0,621,67.031616,1,24,19,0,7,0,0,10.0,0.0,0.0,0.0,35.05158,-85.31057,0,35.05158285,-85.31056906,0.009551380519,0.0,0.0,,186,186,1.0,569,569,BROAD + JACKS ALLEY,-85.31057
155,15.0,Route #15,INBOUND,,Route #15,,,Bus,300,569,BROAD/JACKS ALLEY,N,0,,,,,0.07,0.2154936,0.3012784091,0,0,30.0,2,4,0.1333333333,0,0,0,0.5,0,3,120.0,9,1.9394424,0,0,3,0,0,0,0,7.0,0.0,0.0,0.0,35.05158,-85.31057,0,35.051596,-85.31056625,0.0,0.0,0.0,,4,4,6.0,569,569,BROAD + JACKS ALLEY,-85.31057
156,21.0,Route #21,INBOUND,,Route #21,,,Bus,380,569,BROAD/JACKS ALLEY,N,0,,,,,0.0,0.2154936,0.2678030303,0,0,30.0,2,6,0.1875,0,0,0,0.0,0,0,774.0,50,10.77468,0,0,0,0,0,0,0,6.0,0.0,0.0,0.0,35.05158,-85.31057,0,35.051579,-85.31057,0.0,0.0,0.0,,25,25,0.0,569,569,BROAD + JACKS ALLEY,-85.31057
157,28.0,Route #28,INBOUND,,Route #28,Special,,Bus,220,569,BROAD/JACKS ALLEY,N,0,,,,,0.0,0.29870399999999997,0.5258838384000001,0,0,30.0,2,4,0.1333333333,0,0,0,0.0,0,0,180.0,17,5.077968,0,0,0,0,0,0,0,9.0,0.0,0.0,0.0,35.05158,-85.31057,0,35.051579,-85.31057,0.0,0.0,0.0,,6,6,0.0,569,569,BROAD + JACKS ALLEY,-85.31057
158,33.0,Route #DTS:33,OUTYBOUND,,Route #DTS,,,Bus,180,569,BROAD/JACKS ALLEY,N,0,,,,,0.02522140221,0.1054608,0.2518397335,0,0,22.0,3,23,1.045454545,0,0,0,0.14300000000000002,55,171,5434.0,2229,235.0721232,0,55,146,0,0,0,0,41.0,0.0,0.0,0.0,35.05158,-85.31057,0,35.05158192,-85.31056967,0.0069872958259999994,0.000998185118,0.0,,580,580,1.0,569,569,BROAD + JACKS ALLEY,-85.31057
159,4.0,Route #4,OUTBOUND,,Route #4,,,Bus,250,811,M.L.KING BLVD/DOUGLAS,E,0,,,,,0.004034090909,0.12679680000000002,0.6879634332,0,0,30.0,8,26,0.8125,0,0,0,0.05,7,5,5532.0,1563,198.18339840000002,0,7,4,0,1,0,0,28.0,0.0,0.0,0.0,35.04377,-85.30314200000001,0,35.04377097,-85.30313674,0.014655380390000002,0.0,0.0,,179,179,2.0,485,485,BROAD + 11TH,-85.31034
160,4.0,Route #4,OUTBOUND,,Route #4,,,Bus,250,811,M.L.KING BLVD/DOUGLAS,E,0,,,,,0.004034090909,0.12679680000000002,0.6879634332,0,0,30.0,8,26,0.8125,0,0,0,0.05,7,5,5532.0,1563,198.18339840000002,0,7,4,0,1,0,0,28.0,0.0,0.0,0.0,35.04377,-85.30314200000001,0,35.04377097,-85.30313674,0.014655380390000002,0.0,0.0,,179,179,2.0,811,811,M.L.KING BLVD + DOUGLAS,-85.30314
161,4.0,Route #4,OUTBOUND,,Route #4,,,Bus,250,811,M.L.KING BLVD/DOUGLAS,E,0,,,,,0.004034090909,0.12679680000000002,0.6879634332,0,0,30.0,8,26,0.8125,0,0,0,0.05,7,5,5532.0,1563,198.18339840000002,0,7,4,0,1,0,0,28.0,0.0,0.0,0.0,35.04377,-85.30314200000001,0,35.04377097,-85.30313674,0.014655380390000002,0.0,0.0,,179,179,2.0,890,890,LEE HWY + PARK,-85.16422
162,4.0,Route #4,OUTBOUND,,Route #4,,,Bus,270,813,M.L.KING BLVD/PEEPLES,E,0,,,,,0.06653409091,0.17221199999999998,0.9463295666,0,0,30.0,8,27,0.84375,0,0,0,0.24,41,39,5532.0,1583,272.611596,3,39,25,2,18,0,0,28.0,0.0,0.0,0.0,35.0423,-85.299072,0,35.0423057,-85.29905059,0.014655380390000002,0.0,0.0,,179,179,7.0,813,813,M.L.KING BLVD + PEEPLES,-85.29907
163,4.0,Route #4,OUTBOUND,,Route #4,,,Bus,380,824,BAILEY AVE/HOLLY,E,0,,,,,0.01,0.138684,0.779900965,0,0,30.0,9,27,0.84375,0,0,0,0.07200000000000001,6,9,5532.0,1620,224.66807999999997,0,6,4,0,5,0,0,29.0,0.0,0.0,0.0,35.035,-85.280412,0,35.03499884,-85.28040648,0.014655380390000002,0.0,0.0,,179,179,2.0,824,824,BAILEY AVE + HOLLY,-85.28041
164,10.6,Route #10C,OUTBOUND,,Route #10,,,Bus,430,100027,Wil McC0,X,-1,,,,,0.7809375,,,0,0,30.0,3,9,0.28125,0,0,0,0.0,0,0,964.0,106,,0,0,0,0,0,0,0,10.0,0.0,5.0,27.0,35.035,-85.27185,0,35.03437263,-85.27216238,0.0,0.0,0.8440000000000001,,32,32,247.0,824,824,BAILEY AVE + HOLLY,-85.28041
165,10.9,Route #10G 58:10G,OUTBOUND,,Route #10,,,Bus,390,100027,Wil McC0,X,-1,,,,,0.5760000000000001,,,0,0,30.0,3,9,0.28125,0,0,0,0.0,0,0,2128.0,210,,0,0,0,0,0,0,0,9.0,2.0,19.0,49.0,35.035,-85.27185,0,35.0345347,-85.27207529,0.0,0.0,0.7,,70,70,183.0,824,824,BAILEY AVE + HOLLY,-85.28041
166,4.0,Route #4,OUTBOUND,,Route #4,,,Bus,460,322,BAILEY AVE/LYERLY,E,0,,,,,0.05,0.15057120000000002,0.8639982223999999,0,0,30.0,9,25,0.78125,0,0,0,0.139,9,30,5532.0,1653,248.89419359999997,0,9,16,0,7,0,0,29.0,0.0,0.0,0.0,35.031279999999995,-85.270398,0,35.03127287,-85.2703728,0.014655380390000002,0.0,0.0,,179,179,8.0,322,322,BAILEY AVE + LYERLY,-85.2704
167,10.6,Route #10C,OUTBOUND,,Route #10,,,Bus,490,322,BAILEY AVE/LYERLY,E,0,,,,,0.0,0.49213770000000007,1.086434659,0,0,30.0,3,8,0.25,0,0,0,0.0,0,0,964.0,103,55.950307200000005,0,0,0,0,0,0,0,10.0,0.0,0.0,0.0,35.031279999999995,-85.270398,0,35.031281,-85.270401,0.0,0.0,0.0,,32,32,1.0,322,322,BAILEY AVE + LYERLY,-85.2704
168,10.9,Route #10G 58:10G,OUTBOUND,,Route #10,,,Bus,450,322,BAILEY AVE/LYERLY,E,0,,,,,0.006142857143,0.6970776,1.262305195,0,0,30.0,2,8,0.25,0,0,0,0.071,2,3,2128.0,204,142.2038304,0,2,1,0,2,0,0,9.0,0.0,0.0,0.0,35.031279999999995,-85.270398,0,35.03128039,-85.27039881,0.0,0.0,0.0,,70,70,0.0,322,322,BAILEY AVE + LYERLY,-85.2704
169,4.0,Route #4,OUTBOUND,,Route #4,,,Bus,680,851,BRAINERD RD/HANEY,E,0,,,,,0.008474576271000001,0.141732,0.7734255967,0,0,30.0,8,25,0.78125,0,0,0,0.07200000000000001,6,8,5532.0,1572,222.802704,0,6,4,0,4,0,0,28.0,0.0,0.0,0.0,35.014070000000004,-85.231155,0,35.01407154,-85.23115593,0.014655380390000002,0.0,0.0,,179,179,1.0,851,851,BRAINERD RD + HANEY,-85.23116
170,4.0,Route #4,OUTBOUND,,Route #4,,,Bus,1210,903,E BRAINERD/KENMOOR,E,0,,,,,0.0,0.1831848,0.36993371210000003,0,0,30.0,3,6,0.2,0,0,0,0.0,0,0,120.0,13,2.3814024,0,0,0,0,0,0,0,10.0,0.0,0.0,0.0,35.01634,-85.16530300000001,0,35.016338,-85.165306,0.0,0.0,0.0,,4,4,1.0,903,903,E BRAINERD + KENMOOR,-85.1653
171,4.0,Route #4,OUTBOUND,,Route #4,,,Bus,1260,908,E BRAINERD/FIRE HALL,E,0,,,,,0.0,0.5556504,1.122111742,0,0,30.0,3,6,0.2,0,0,0,0.0,0,0,120.0,13,7.223455199999999,0,0,0,0,0,0,0,10.0,0.0,0.0,0.0,35.01063,-85.155035,0,35.010632,-85.155037,0.0,0.0,0.0,,4,4,1.0,44,44,BI LO + BI LO STOP,-85.32582
172,4.0,Route #4,OUTBOUND,,Route #4,,,Bus,1260,908,E BRAINERD/FIRE HALL,E,0,,,,,0.0,0.5556504,1.122111742,0,0,30.0,3,6,0.2,0,0,0,0.0,0,0,120.0,13,7.223455199999999,0,0,0,0,0,0,0,10.0,0.0,0.0,0.0,35.01063,-85.155035,0,35.010632,-85.155037,0.0,0.0,0.0,,4,4,1.0,861,861,BRAINERD RD + EASTGATE DR,-85.21776
173,4.0,Route #4,OUTBOUND,,Route #4,,,Bus,1260,908,E BRAINERD/FIRE HALL,E,0,,,,,0.0,0.5556504,1.122111742,0,0,30.0,3,6,0.2,0,0,0,0.0,0,0,120.0,13,7.223455199999999,0,0,0,0,0,0,0,10.0,0.0,0.0,0.0,35.01063,-85.155035,0,35.010632,-85.155037,0.0,0.0,0.0,,4,4,1.0,908,908,E BRAINERD + FIRE HALL,-85.15504
174,4.0,Route #4,OUTBOUND,,Route #4,,,Bus,1260,908,E BRAINERD/FIRE HALL,E,0,,,,,0.0,0.5556504,1.122111742,0,0,30.0,3,6,0.2,0,0,0,0.0,0,0,120.0,13,7.223455199999999,0,0,0,0,0,0,0,10.0,0.0,0.0,0.0,35.01063,-85.155035,0,35.010632,-85.155037,0.0,0.0,0.0,,4,4,1.0,952,952,BRAINERD RD + KRISPY KREME,-85.21774
175,4.0,Route #4,OUTBOUND,,Route #4,,,Bus,1290,1917,GUNBARREL/GOODWIN,N,0,,,,,0.0,1.6126968000000002,1.503125,0,0,30.0,1,3,0.1,0,0,0,0.25,0,1,120.0,6,9.676180800000001,0,0,1,0,0,0,0,5.0,0.0,0.0,0.0,35.03003,-85.15559,0,35.030029,-85.155586,0.0,0.0,0.0,,4,4,1.0,1917,1917,GUNBARREL + GOODWIN,-85.15559
176,4.0,Route #4,OUTBOUND,,Route #4,,,Bus,1300,1482,LEE HWY/MCCUTCHEON,N,0,,,,,0.0,0.5364479999999999,2.222222222,0,0,32.0,6,8,0.25,0,0,0,0.0,0,0,96.0,20,10.72896,0,0,0,0,0,0,0,20.0,0.0,0.0,0.0,35.04733,-85.158373,0,35.047329,-85.158371,0.0,0.0,0.0,,3,3,1.0,1482,1482,LEE HWY + MCCUTCHEON,-85.15836999999999
177,4.0,Route #4,OUTBOUND,,Route #4,,,Bus,1360,1470,TYNER/LEE HWY,W,0,,,,,0.0,0.7245096,1.9508207069999999,0,2,32.0,4,6,0.1875,0,0,0,1.0,0,7,96.0,13,9.4186248,0,0,6,0,1,0,0,13.0,0.0,0.0,0.0,35.05676,-85.140555,0,35.056759,-85.140556,0.0,0.0,0.0,,3,3,0.0,1470,1470,TYNER + LEE HWY,-85.14056
178,4.0,Route #4,OUTBOUND,,Route #4,,,Bus,1440,898,HAMILTON PLACE/ACROPILIS,S,0,,,,,0.1393442623,2.084754981,3.7957864939999997,0,1,30.0,2,13,0.40625,0,0,0,0.5589999999999999,16,211,5748.0,545,1136.2230769999999,1,23,120,1,90,0,0,9.0,0.0,0.0,0.0,35.03974,-85.15571800000001,0,35.03976248,-85.15570374,0.01410383382,0.0,0.0,,186,186,9.0,898,898,HAMILTON PLACE + ACROPILIS,-85.15572
179,4.0,Route #4,OUTBOUND,,Route #4,,,Bus,1460,1876,HAMMALL,E,0,,,,,,,,0,0,30.0,2,5,0.15625,0,0,0,0.369,0,154,5436.0,373,,2,0,101,0,57,0,0,6.0,0.0,0.0,0.0,35.03678,-85.16040799999999,0,35.03681444,-85.16037915,0.01490518801,0.0,0.0,,176,176,15.0,1876,1876,HAMMALL,-85.16041
180,4.0,Route #4,OUTBOUND,,Route #4,,,Bus,1460,1876,HAMMALL,E,0,,,,,,,,0,0,30.0,2,5,0.15625,0,0,0,0.369,0,154,5436.0,373,,2,0,101,0,57,0,0,6.0,0.0,0.0,0.0,35.03678,-85.16040799999999,0,35.03681444,-85.16037915,0.01490518801,0.0,0.0,,176,176,15.0,1882,1882,HAMMALL,-85.16041
181,4.0,Route #4,OUTBOUND,,Route #4,,,Bus,1460,1876,HAMMALL,E,0,,,,,,,,0,0,30.0,2,5,0.15625,0,0,0,0.369,0,154,5436.0,373,,2,0,101,0,57,0,0,6.0,0.0,0.0,0.0,35.03678,-85.16040799999999,0,35.03681444,-85.16037915,0.01490518801,0.0,0.0,,176,176,15.0,1883,1883,HAMMALL,-85.16041
182,4.0,Route #4,OUTBOUND,,Route #4,,,Bus,1460,1876,HAMMALL,E,0,,,,,,,,0,0,30.0,2,5,0.15625,0,0,0,0.369,0,154,5436.0,373,,2,0,101,0,57,0,0,6.0,0.0,0.0,0.0,35.03678,-85.16040799999999,0,35.03681444,-85.16037915,0.01490518801,0.0,0.0,,176,176,15.0,1885,1885,HAMMALL,-85.16044000000001
183,7.0,Route #7,INBOUND,,Route #7,,,Bus,30,355,HOLZCLAW/WILCOX,W,0,,,,,0.0052941176470000005,0.10271760000000002,0.02440396613,0,0,30.0,0,3,0.1,0,0,0,0.057999999999999996,3,1,1020.0,13,1.3353288,0,3,1,0,0,0,0,1.0,0.0,0.0,0.0,35.05513,-85.269413,0,35.05512832,-85.26941318,0.0,0.0,0.0,,34,34,1.0,355,355,HOLZCLAW + WILCOX,-85.26941
184,14.0,Route #14,OUTBOUND,,Route #14,Special,,Bus,30,355,HOLZCLAW/WILCOX,W,0,,,,,0.0,0.10271760000000002,0.01823593074,0,0,30.0,0,1,0.03333333333,0,0,0,0.0,0,0,210.0,2,0.20543520000000004,0,0,0,0,0,0,0,0.0,0.0,0.0,0.0,35.05513,-85.269413,0,35.05513,-85.269417,0.0,0.0,0.0,,7,7,1.0,355,355,HOLZCLAW + WILCOX,-85.26941
185,19.0,Route #19,INBOUND,,Route #19,,,Bus,670,355,HOLZCLAW/WILCOX,W,0,,,,,0.0,0.10271760000000002,0.1882859848,0,0,30.0,2,7,0.23333333329999997,0,0,0,0.0,0,0,600.0,59,6.060338400000001,0,0,0,0,0,0,0,9.0,0.0,0.0,0.0,35.05513,-85.269413,0,35.05513,-85.269417,0.0,0.0,0.0,,20,20,1.0,355,355,HOLZCLAW + WILCOX,-85.26941
186,7.0,Route #7,INBOUND,,Route #7,,,Bus,40,356,HOLZCLAW/WILSON,W,0,,,,,0.01029411765,0.9153144,0.2509191176,0,0,30.0,0,3,0.1,0,0,0,0.057999999999999996,2,0,1020.0,15,13.729716,0,2,0,0,0,0,0,1.0,0.0,0.0,0.0,35.054759999999995,-85.27043,0,35.05476144,-85.27043512,0.0,0.0,0.0,,34,34,2.0,356,356,HOLZCLAW + WILSON,-85.27043
187,14.0,Route #14,OUTBOUND,,Route #14,Special,,Bus,40,356,HOLZCLAW/WILSON,W,0,,,,,0.01428571429,0.4977384,0.08836580087000001,0,0,30.0,0,1,0.03333333333,0,0,0,0.0,0,0,210.0,2,0.9954768,0,0,0,0,0,0,0,0.0,0.0,0.0,0.0,35.054759999999995,-85.27043,0,35.05475186,-85.27042643,0.0,0.0,0.0,,7,7,3.0,356,356,HOLZCLAW + WILSON,-85.27043
188,19.0,Route #19,INBOUND,,Route #19,,,Bus,680,356,HOLZCLAW/WILSON,W,0,,,,,0.06842105262999999,0.4977384,1.005160985,0,0,30.0,3,10,0.3333333333,0,0,0,0.2,6,0,600.0,65,32.352996000000005,0,6,0,0,0,0,0,10.0,0.0,0.0,0.0,35.054759999999995,-85.27043,0,35.054753000000005,-85.27043716,0.0,0.0,0.0,,20,20,3.0,356,356,HOLZCLAW + WILSON,-85.27043
189,7.0,Route #7,INBOUND,,Route #7,,,Bus,90,273,3RD/FIELD HOUSE,W,0,,,,,0.02818181818,0.4504944,0.20582664879999998,0,0,30.0,0,4,0.1333333333,0,0,0,0.17600000000000002,6,0,1020.0,25,11.262360000000001,0,6,0,0,0,0,0,2.0,0.0,0.0,0.0,35.044290000000004,-85.280745,0,35.04427839,-85.28075482,0.0,0.0,0.0,,34,34,5.0,273,273,3RD + FIELD HOUSE,-85.28075
190,10.1,Route #10A,INBOUND,,Route #10,,,Bus,430,273,3RD/FIELD HOUSE,W,0,,,,,0.04241379309999999,0.4504944,1.6608838380000002,0,0,30.0,5,16,0.5,0,0,0,0.233,8,1,906.0,178,80.1880032,0,7,1,1,0,0,0,19.0,0.0,0.0,0.0,35.044290000000004,-85.280745,0,35.04427662,-85.28075745,0.0,0.0,0.0,,30,30,6.0,273,273,3RD + FIELD HOUSE,-85.28075
191,10.9,Route #10G 58:10G,INBOUND,,Route #10,,,Bus,900,273,3RD/FIELD HOUSE,W,0,,,,,0.1742268041,0.4504944,1.05332318,0,0,30.0,3,12,0.375,0,0,0,0.226,38,10,2940.0,365,164.430456,0,38,7,0,0,0,0,12.0,0.0,0.0,0.0,35.044290000000004,-85.280745,0,35.04428049,-85.28075711,0.0,0.0,0.0,,97,97,5.0,273,273,3RD + FIELD HOUSE,-85.28075
192,14.0,Route #14,OUTBOUND,,Route #14,Special,,Bus,90,273,3RD/FIELD HOUSE,W,0,,,,,0.0,0.9726168,0.1726731602,0,0,30.0,0,1,0.03333333333,0,0,0,0.0,0,0,210.0,2,1.9452336,0,0,0,0,0,0,0,0.0,0.0,0.0,0.0,35.044290000000004,-85.280745,0,35.044289,-85.280746,0.0,0.0,0.0,,7,7,0.0,273,273,3RD + FIELD HOUSE,-85.28075
193,19.0,Route #19,INBOUND,,Route #19,,,Bus,730,273,3RD/FIELD HOUSE,W,0,,,,,0.0,0.5782056,1.275445076,0,0,30.0,3,10,0.3333333333,0,0,0,0.0,0,0,600.0,71,41.052597600000006,0,0,0,0,0,0,0,11.0,0.0,0.0,0.0,35.044290000000004,-85.280745,0,35.044289,-85.280746,0.0,0.0,0.0,,20,20,0.0,273,273,3RD + FIELD HOUSE,-85.28075
194,7.0,Route #7,OUTBOUND,,Route #7,,,Bus,150,415,VINE/HOUSTON,N,0,,,,,0.0009677419355,0.27950159999999996,0.2353005865,0,0,30.0,1,6,0.1875,0,0,0,0.0,0,0,938.0,42,11.7390672,0,0,0,0,0,0,0,4.0,0.0,0.0,0.0,35.048840000000006,-85.303062,0,35.04884184,-85.30306177,0.0,0.0,0.0,,31,31,1.0,415,415,VINE + HOUSTON,-85.30306
195,7.0,Route #7,OUTBOUND,,Route #7,,,Bus,190,175,3RD/COLLINS,S,0,,,,,0.0,0.2837688,0.22751710649999998,0,0,30.0,1,5,0.15625,0,0,0,0.032,0,2,938.0,40,11.350752,0,0,2,0,0,0,0,4.0,0.0,0.0,0.0,35.04963,-85.294607,0,35.049628999999996,-85.294609,0.0,0.0,0.0,,31,31,1.0,175,175,3RD + COLLINS,-85.29460999999999
196,10.1,Route #10A,OUTBOUND,,Route #10,,,Bus,210,175,3RD/COLLINS,S,0,,,,,0.004320987654,0.1551432,0.5113982816,0,0,30.0,5,16,0.5,0,0,0,0.073,1,5,2482.0,435,67.48729200000001,0,1,6,0,1,0,0,17.0,0.0,0.0,0.0,35.04963,-85.294607,0,35.04962778,-85.29460825,0.0,0.0,0.0,,82,82,1.0,175,175,3RD + COLLINS,-85.29460999999999
197,10.6,Route #10C,OUTBOUND,,Route #10,,,Bus,230,175,3RD/COLLINS,S,0,,,,,0.003125,0.1872996,0.4383404356,0,0,30.0,3,10,0.3125,0,0,0,0.125,4,3,964.0,114,22.5740976,0,4,0,0,3,0,0,11.0,0.0,0.0,0.0,35.04963,-85.294607,0,35.04962828,-85.29461209,0.0,0.0,0.0,,32,32,2.0,175,175,3RD + COLLINS,-85.29460999999999
198,10.9,Route #10G 58:10G,OUTBOUND,,Route #10,,,Bus,220,175,3RD/COLLINS,S,0,,,,,0.006714285714,0.2837688,0.6448484848,0,0,30.0,3,12,0.375,0,0,0,0.228,3,16,2128.0,256,72.6448128,1,3,15,0,1,0,0,12.0,0.0,0.0,0.0,35.04963,-85.294607,0,35.049625899999995,-85.29460889,0.0,0.0,0.0,,70,70,2.0,175,175,3RD + COLLINS,-85.29460999999999
199,19.0,Route #19,OUTBOUND,,Route #19,,,Bus,150,175,3RD/COLLINS,S,0,,,,,0.0,0.1551432,0.49164772729999995,0,0,30.0,5,12,0.4,0,0,0,0.0,0,0,600.0,102,15.824606400000002,0,0,0,0,0,0,0,17.0,0.0,0.0,0.0,35.04963,-85.294607,0,35.049628999999996,-85.294609,0.0,0.0,0.0,,20,20,1.0,175,175,3RD + COLLINS,-85.29460999999999
200,7.0,Route #7,OUTBOUND,,Route #7,,,Bus,290,1550,HOLZCLAW/CHATTANOOGA HOUSING AUTHORITY,N,0,,,,,0.04870967741999999,0.40934640000000005,0.2461510264,0,0,30.0,0,5,0.15625,0,0,0,0.161,0,6,938.0,30,12.280391999999999,0,0,5,0,1,0,0,3.0,0.0,0.0,0.0,35.04905,-85.27693199999999,0,35.049038,-85.27694255,0.0,0.0,0.0,,31,31,5.0,1550,1550,HOLZCLAW + CHATTANOOGA HOUSING AUTHORITY,-85.27693000000001
201,8.0,Route #8,INBOUND,,Route #8,,,Bus,200,1055,NEW YORK/3185,E,0,,,,,0.0,0.31790640000000003,0.3608865093,0,0,30.0,1,4,0.1333333333,0,0,0,0.0,0,0,1560.0,95,30.201108,0,0,0,0,0,0,0,6.0,0.0,0.0,0.0,35.068220000000004,-85.231043,0,35.068218,-85.231041,0.0,0.0,0.0,,52,52,1.0,1055,1055,NEW YORK + 3185,-85.23104000000001
202,8.0,Route #8,INBOUND,,Route #8,,,Bus,250,1061,TUNNEL BLVD/GREEN FOR,S,0,,,,,0.0,0.176784,0.20490967370000002,0,0,30.0,1,5,0.1666666667,0,0,0,0.0,0,0,1560.0,97,17.148048,0,0,0,0,0,0,0,6.0,0.0,0.0,0.0,35.0574,-85.231362,0,35.0574,-85.23136099999999,0.0,0.0,0.0,,52,52,0.0,1061,1061,TUNNEL BLVD + GREEN FOR,-85.23136
203,8.0,Route #8,INBOUND,,Route #8,,,Bus,390,1836,NORTH MOORE/SHAWHAN,S,0,,,,,0.0,0.7025640000000001,0.8479203089,0,0,30.0,1,5,0.1666666667,0,0,0,0.019,0,1,1560.0,101,70.958964,0,0,1,0,0,0,0,6.0,0.0,0.0,0.0,35.0378,-85.219538,0,35.0378,-85.219536,0.0,0.0,0.0,,52,52,1.0,1836,1836,NORTH MOORE + SHAWHAN,-85.21954000000001
204,8.0,Route #8,INBOUND,,Route #8,,,Bus,500,1073,TUNNEL BLVD/LASALLE,S,0,,,,,0.0,0.2429256,0.3541448135,0,0,30.0,2,8,0.2666666667,0,0,0,0.019,1,0,1560.0,122,29.636923200000002,0,1,0,0,0,0,0,7.0,0.0,0.0,0.0,35.04137,-85.239118,0,35.04137,-85.23912,0.0,0.0,0.0,,52,52,1.0,1073,1073,TUNNEL BLVD + LASALLE,-85.23912
205,8.0,Route #8,INBOUND,,Route #8,,,Bus,540,1077,GERMANTOWN/TUNNEL BLVD,S,0,,,,,0.0,0.21793200000000001,0.3463541667,0,0,30.0,2,9,0.3,0,0,0,0.096,6,0,1560.0,133,28.984956,0,6,0,0,0,0,0,8.0,0.0,0.0,0.0,35.03533,-85.2419,0,35.035332000000004,-85.24189799999999,0.0,0.0,0.0,,52,52,1.0,1077,1077,GERMANTOWN + TUNNEL BLVD,-85.2419
206,8.0,Route #8,INBOUND,,Route #8,,,Bus,590,1082,GERMANTOWN/MONTVIEW,S,0,,,,,0.0,0.22280879999999997,0.38339160840000003,0,0,30.0,2,9,0.3,0,0,0,0.038,4,4,1560.0,144,32.0844672,0,4,4,0,0,0,0,9.0,0.0,0.0,0.0,35.02683,-85.244998,0,35.026829,-85.24499499999999,0.0,0.0,0.0,,52,52,1.0,1082,1082,GERMANTOWN + MONTVIEW,-85.245
207,8.0,Route #8,OUTBOUND,,Route #8,,,Bus,600,1489,GERMANTOWN/ROGERS ROAD,N,0,,,,,,0.195072,0.2836363636,0,0,30.0,2,8,0.2666666667,0,0,0,0.0,0,0,1500.0,117,22.823424,0,0,0,0,0,0,0,7.0,0.0,0.0,0.0,35.03022,-85.243092,0,,,0.0,0.0,0.0,,50,50,,1489,1489,GERMANTOWN + ROGERS ROAD,-85.24309000000001
208,8.0,Route #8,OUTBOUND,,Route #8,,,Bus,690,1040,TUNNEL BLVD/HOYT,N,0,,,,,0.0067307692310000005,0.14478,0.19376456879999998,0,0,30.0,2,7,0.23333333329999997,0,0,0,0.076,0,5,1560.0,112,16.21536,0,0,1,0,4,0,0,7.0,0.0,0.0,0.0,35.042320000000004,-85.23861,0,35.04232252,-85.23861356,0.0,0.0,0.0,,52,52,1.0,1040,1040,TUNNEL BLVD + HOYT,-85.23861
209,8.0,Route #8,OUTBOUND,,Route #8,,,Bus,710,1042,TUNNEL BLVD/JONES,N,0,,,,,0.0,0.1038078462,0.1301937646,0,0,30.0,2,6,0.2,0,0,0,0.019,0,1,1560.0,105,10.8953808,0,0,1,0,0,0,0,6.0,0.0,0.0,0.0,35.0459,-85.237623,0,35.045898,-85.237625,0.0,0.0,0.0,,52,52,1.0,1042,1042,TUNNEL BLVD + JONES,-85.23761999999999
210,9.0,Route #9,INBOUND,,Route #9,,,Bus,10,100221,Sta St,X,-1,,,,,,,,0,0,30.0,1,5,0.15625,0,0,0,0.0,0,0,3358.0,207,,0,0,0,0,0,0,0,6.0,,,,34.98473,-85.28815,0,34.98416062,-85.28747177,0.0053235053240000005,0.0,,,111,111,290.0,1710,1710,STATE ST + STATE LINE,-85.28815
211,9.0,Route #9,INBOUND,,Route #9,,,Bus,20,1710,STATE ST/STATE LINE,W,0,,,,,,0.2060448,0.3402607153,0,0,30.0,2,8,0.25,0,0,0,0.495,88,0,3358.0,295,60.783216,0,85,0,1,0,0,0,8.0,0.0,0.0,0.0,34.98473,-85.28815,0,34.98445875,-85.28783137,0.0053235053240000005,0.0,0.0,,111,111,137.0,1710,1710,STATE ST + STATE LINE,-85.28815
212,9.0,Route #9,OUTBOUND,,Route #9,,,Bus,800,100221,Sta St,X,-1,,,,,,,,0,0,30.0,2,12,0.375,0,0,0,0.0,0,0,3328.0,276,,0,0,0,0,0,0,0,8.0,,,,34.98473,-85.28815,0,34.98440352,-85.28812877,0.002898550725,0.0,,,110,110,119.0,1710,1710,STATE ST + STATE LINE,-85.28815
213,9.0,Route #9,OUTBOUND,,Route #9,,,Bus,810,1710,STATE ST/STATE LINE,W,0,,,,,,,,0,0,30.0,1,11,0.34375,0,0,0,0.381,0,63,3328.0,213,,0,0,61,0,6,0,0,6.0,0.0,0.0,0.0,34.98473,-85.28815,0,34.98478382,-85.28814075,0.002898550725,0.0,0.0,,110,110,20.0,1710,1710,STATE ST + STATE LINE,-85.28815
214,13.0,Route #13,INBOUND,,Route #13,,,Bus,10,100221,Sta St,X,-1,,,,,,,,0,0,30.0,3,5,0.1666666667,0,0,0,0.0,0,0,1200.0,121,,0,0,0,0,0,0,0,10.0,,,,34.98473,-85.28815,0,34.98453435,-85.28757698,0.0,0.0,,,40,40,186.0,1710,1710,STATE ST + STATE LINE,-85.28815
215,13.0,Route #13,INBOUND,,Route #13,,,Bus,20,1710,STATE ST/STATE LINE,W,0,,,,,,0.2060448,0.4289015152,0,0,30.0,3,7,0.23333333329999997,0,0,0,0.175,13,0,1200.0,134,27.6100032,0,13,0,0,0,0,0,11.0,0.0,0.0,0.0,34.98473,-85.28815,0,34.98469469,-85.28811037,0.0,0.0,0.0,,40,40,18.0,1710,1710,STATE ST + STATE LINE,-85.28815
216,13.0,Route #13,OUTBOUND,,Route #13,,,Bus,770,100221,Sta St,X,-1,,,,,,,,0,0,30.0,3,7,0.23333333329999997,0,0,0,0.0,0,0,1230.0,136,,0,0,0,0,0,0,0,11.0,,,,34.98473,-85.28815,0,34.98706371,-85.28773337,0.0,0.0,,,41,41,861.0,1710,1710,STATE ST + STATE LINE,-85.28815
217,13.0,Route #13,OUTBOUND,,Route #13,,,Bus,780,1710,STATE ST/STATE LINE,W,0,,,,,,,,0,0,30.0,2,5,0.1666666667,0,0,0,0.21899999999999997,0,15,1230.0,121,,0,0,7,0,5,0,0,9.0,0.0,0.0,0.0,34.98473,-85.28815,0,34.98486191,-85.28812659,0.0,0.0,0.0,,41,41,49.0,1710,1710,STATE ST + STATE LINE,-85.28815
218,9.0,Route #9,INBOUND,,Route #9,,,Bus,40,1706,ROSSVILLE BLVD/50TH,W,0,,,,,0.0001801801802,0.1130808,0.1873737374,0,0,30.0,2,8,0.25,0,0,0,0.018000000000000002,0,4,3358.0,296,33.4719168,0,0,2,0,2,0,0,8.0,0.0,0.0,0.0,34.98551,-85.287109,0,34.98551743,-85.28711189,0.0053235053240000005,0.0,0.0,,111,111,3.0,1706,1706,ROSSVILLE BLVD + 50TH,-85.28711
219,13.0,Route #13,INBOUND,,Route #13,,,Bus,40,1706,ROSSVILLE BLVD/50TH,W,0,,,,,0.023,0.1130808,0.2353882576,0,0,30.0,3,8,0.2666666667,0,0,0,0.075,0,5,1200.0,134,15.152827199999999,0,0,0,0,5,0,0,11.0,0.0,0.0,0.0,34.98551,-85.287109,0,34.98551323,-85.28710998,0.0,0.0,0.0,,40,40,1.0,1706,1706,ROSSVILLE BLVD + 50TH,-85.28711
220,9.0,Route #9,INBOUND,,Route #9,,,Bus,300,1164,4TH AVE/24TH,N,0,,,,,0.1070909091,0.5876544,1.868523069,1,0,30.0,5,13,0.40625,0,0,0,0.54,122,37,3358.0,568,333.7876992,0,122,17,0,11,0,0,16.0,0.0,0.0,0.0,35.015159999999995,-85.28115799999999,0,35.01518685,-85.28113374,0.0053235053240000005,0.0,0.0,,111,111,12.0,1164,1164,4TH AVE + 24TH,-85.28116
221,13.0,Route #13,INBOUND,,Route #13,,,Bus,350,1164,4TH AVE/24TH,N,0,,,,,0.057999999999999996,0.41970959999999996,1.317017045,0,0,30.0,5,12,0.4,0,0,0,0.325,16,5,1200.0,202,84.7813392,0,16,2,0,3,0,0,16.0,0.0,0.0,0.0,35.015159999999995,-85.28115799999999,0,35.01517695,-85.28114509999999,0.0,0.0,0.0,,40,40,7.0,1164,1164,4TH AVE + 24TH,-85.28116
222,9.0,Route #9,INBOUND,,Route #9,,,Bus,310,1548,23RD/LYERLY,S,0,,,,,0.06495495495,0.4507992,1.4560861999999999,0,0,30.0,5,14,0.4375,0,0,0,0.099,12,3,3358.0,577,260.1111384,0,12,3,0,0,0,0,17.0,0.0,0.0,0.0,35.01688,-85.276978,0,35.01688375,-85.27698685,0.0053235053240000005,0.0,0.0,,111,111,3.0,1548,1548,23RD + LYERLY,-85.27698000000001
223,9.0,Route #9,INBOUND,,Route #9,,,Bus,350,1169,DODDS/16TH,N,0,,,,,0.02009090909,0.3572256,1.221833197,0,0,30.0,5,14,0.4375,0,0,0,0.099,11,2,3358.0,611,218.26484159999998,0,11,1,0,1,0,0,18.0,0.0,0.0,0.0,35.0206,-85.270542,0,35.02060277,-85.27053607,0.0053235053240000005,0.0,0.0,,111,111,2.0,1169,1169,DODDS + 16TH,-85.27054
224,9.0,Route #9,INBOUND,,Route #9,,,Bus,350,1169,DODDS/16TH,N,0,,,,,0.02009090909,0.3572256,1.221833197,0,0,30.0,5,14,0.4375,0,0,0,0.099,11,2,3358.0,611,218.26484159999998,0,11,1,0,1,0,0,18.0,0.0,0.0,0.0,35.0206,-85.270542,0,35.02060277,-85.27053607,0.0053235053240000005,0.0,0.0,,111,111,2.0,1667,1667,CENTRAL DR + NELSON DR,-85.19646999999999
225,9.0,Route #9,INBOUND,,Route #9,,,Bus,530,1187,MAIN/CENTRAL,W,0,,,,,0.01354545455,0.0893064,0.39194649189999997,0,0,30.0,7,26,0.8125,0,0,0,0.036000000000000004,1,7,3358.0,784,70.0162176,0,1,5,0,2,0,0,23.0,0.0,0.0,0.0,35.0319,-85.2961,0,35.03190052,-85.29609769,0.0053235053240000005,0.0,0.0,,111,111,1.0,1187,1187,MAIN + CENTRAL,-85.2961
226,9.0,Route #9,OUTBOUND,,Route #9,,,Bus,260,1086,MAIN/WASHINGTON,E,0,,,,,0.001869158879,0.1261872,0.5445867769,0,0,30.0,6,23,0.71875,0,0,0,0.009000000000000001,1,0,3328.0,764,96.4070208,0,1,0,0,0,0,0,22.0,0.0,0.0,0.0,35.03432,-85.302712,0,35.03432214,-85.30271122,0.002898550725,0.0,0.0,,110,110,1.0,1086,1086,MAIN + WASHINGTON,-85.30271
227,9.0,Route #9,OUTBOUND,,Route #9,,,Bus,320,1092,MAIN/POLK,E,0,,,,,0.005504587156,0.3334512,1.420241047,0,0,30.0,6,23,0.71875,0,0,0,0.1,3,13,3328.0,754,251.4222048,0,3,7,0,8,0,0,22.0,0.0,0.0,0.0,35.03086,-85.293477,0,35.03085819,-85.29346964,0.002898550725,0.0,0.0,,110,110,2.0,1092,1092,MAIN + POLK,-85.29348
228,9.0,Route #9,OUTBOUND,,Route #9,,,Bus,390,1558,MAIN/HAWTHORNE,E,0,,,,,0.008532110092,0.17434560000000002,0.6411363636,0,0,30.0,5,20,0.625,0,0,0,0.136,1,27,3328.0,651,113.4989856,0,1,18,0,10,0,0,19.0,0.0,0.0,0.0,35.026709999999994,-85.28197,0,35.02670261,-85.28193916,0.002898550725,0.0,0.0,,110,110,10.0,1558,1558,MAIN + HAWTHORNE,-85.28197
229,9.0,Route #9,OUTBOUND,,Route #9,,,Bus,450,1103,MAIN/LYERLY,E,0,,,,,0.003577981651,0.14081760000000001,0.48443181820000003,0,0,30.0,5,20,0.625,0,0,0,0.027000000000000003,0,3,3328.0,609,85.7579184,0,0,1,0,3,0,0,18.0,0.0,0.0,0.0,35.02393,-85.274245,0,35.02392862,-85.27424194,0.002898550725,0.0,0.0,,110,110,1.0,1103,1103,MAIN + LYERLY,-85.27425
230,9.0,Route #9,OUTBOUND,,Route #9,,,Bus,490,1107,DODDS/16TH,S,0,,,,,0.009174311927,0.1139952,0.3825,0,0,30.0,5,20,0.625,0,0,0,0.027000000000000003,0,9,3328.0,594,67.7131488,0,0,12,0,0,0,0,17.0,0.0,0.0,0.0,35.02089,-85.270557,0,35.02088783,-85.27055239,0.002898550725,0.0,0.0,,110,110,2.0,1107,1107,DODDS + 16TH,-85.27056
231,9.0,Route #9,OUTBOUND,,Route #9,,,Bus,520,1110,DODDS/19TH,S,0,,,,,0.005092592593,0.15057120000000002,0.4958712121,0,0,30.0,5,19,0.59375,0,0,0,0.054000000000000006,0,6,3328.0,583,87.78300959999999,0,0,4,0,2,0,0,17.0,0.0,0.0,0.0,35.018159999999995,-85.272273,0,35.01816082,-85.27226824,0.002898550725,0.0,0.0,,110,110,1.0,1110,1110,DODDS + 19TH,-85.27226999999999
232,9.0,Route #9,OUTBOUND,,Route #9,,,Bus,530,1111,DODDS/21ST,S,0,,,,,0.0024770642199999997,0.120396,0.3944559229,0,0,30.0,5,19,0.59375,0,0,0,0.045,1,4,3328.0,580,69.82968000000001,0,1,4,0,0,0,0,17.0,0.0,0.0,0.0,35.01692,-85.272942,0,35.01691852,-85.27294123,0.002898550725,0.0,0.0,,110,110,1.0,1111,1111,DODDS + 21ST,-85.27294
233,9.0,Route #9,OUTBOUND,,Route #9,,,Bus,540,1112,DODDS/23RD,W,0,,,,,0.00623853211,0.1130808,0.35962982090000006,0,0,30.0,5,19,0.59375,0,0,0,0.063,0,17,3328.0,563,63.6644904,0,0,7,0,3,0,0,16.0,0.0,0.0,0.0,35.01599,-85.273593,0,35.01599972,-85.27358259,0.002898550725,0.0,0.0,,110,110,5.0,1112,1112,DODDS + 23RD,-85.27359
234,9.0,Route #9,OUTBOUND,,Route #9,,,Bus,620,1120,28TH/6TH AVE,E,0,,,,,0.0,0.4087368,0.9073915289,0,0,30.0,3,13,0.40625,0,0,0,0.054000000000000006,1,5,3328.0,393,160.63356240000002,0,1,5,0,0,0,0,11.0,0.0,0.0,0.0,35.010670000000005,-85.281302,0,35.010670000000005,-85.28130300000001,0.002898550725,0.0,0.0,,110,110,0.0,1120,1120,28TH + 6TH AVE,-85.2813
235,9.0,Route #9,OUTBOUND,,Route #9,,,Bus,650,1123,DODDS/30TH,S,0,,,,,0.005229357798,0.140208,0.3088842975,0,0,30.0,3,13,0.40625,0,0,0,0.045,3,2,3328.0,390,54.68111999999999,0,3,2,0,0,0,0,11.0,0.0,0.0,0.0,35.00693,-85.278187,0,35.006919700000005,-85.27820176,0.002898550725,0.0,0.0,,110,110,6.0,1123,1123,DODDS + 30TH,-85.27819000000001
236,9.0,Route #9,OUTBOUND,,Route #9,,,Bus,680,1126,DODDS/33RD,S,0,,,,,0.01779816514,0.1237488,0.2586432507,0,0,30.0,3,11,0.34375,0,0,0,0.127,6,20,3328.0,370,45.787056,0,6,11,0,4,0,0,11.0,0.0,0.0,0.0,35.0035,-85.280222,0,35.00349503,-85.28022694,0.002898550725,0.0,0.0,,110,110,2.0,1126,1126,DODDS + 33RD,-85.28022
237,9.0,Route #9,OUTBOUND,,Route #9,,,Bus,690,1127,DODDS/34TH,S,0,,,,,0.007339449541,0.2249424,0.46125,0,0,30.0,3,11,0.34375,0,0,0,0.07200000000000001,2,9,3328.0,363,81.6540912,0,2,3,0,6,0,0,10.0,0.0,0.0,0.0,35.00248,-85.280778,0,35.00247768,-85.28077986,0.002898550725,0.0,0.0,,110,110,1.0,1127,1127,DODDS + 34TH,-85.28078000000001
238,9.0,Route #9,OUTBOUND,,Route #9,,,Bus,700,1128,DODDS/36TH,S,0,,,,,0.02027522936,0.1469136,0.2979304408,0,0,30.0,3,12,0.375,0,0,0,0.11800000000000001,6,10,3328.0,359,52.741982400000005,0,6,10,0,1,0,0,10.0,0.0,0.0,0.0,35.000640000000004,-85.28179499999999,0,35.00063801,-85.28179414,0.002898550725,0.0,0.0,,110,110,1.0,1128,1128,DODDS + 36TH,-85.2818
239,9.0,Route #9,OUTBOUND,,Route #9,,,Bus,740,1132,DODDS/42ND,S,0,,,,,0.015412844040000002,0.1636776,0.3125103306,0,0,30.0,3,12,0.375,0,0,0,0.063,1,6,3328.0,338,55.323028799999996,1,1,5,0,1,0,0,10.0,0.0,0.0,0.0,34.99427,-85.284927,0,34.99426661,-85.28492883,0.002898550725,0.0,0.0,,110,110,1.0,1132,1132,DODDS + 42ND,-85.28493
240,9.0,Route #9,OUTBOUND,,Route #9,,,Bus,770,1498,DODDS/46TH,S,0,,,,,0.0009259259259,0.24566880000000002,0.42742424240000004,0,0,30.0,2,12,0.375,0,0,0,0.11800000000000001,0,17,3328.0,308,75.66599040000001,0,0,8,0,8,0,0,9.0,0.0,0.0,0.0,34.98984,-85.28730999999999,0,34.98983348,-85.28731217,0.002898550725,0.0,0.0,,110,110,2.0,1498,1498,DODDS + 46TH,-85.28730999999999
241,9.0,Route #9,OUTBOUND,,Route #9,,,Bus,780,1559,DODDS/48TH,S,0,,,,,0.04056074766,0.1301496,0.2139411157,0,0,30.0,2,12,0.375,0,0,0,0.09,0,17,3328.0,291,37.8735336,0,0,10,0,5,0,0,8.0,0.0,0.0,0.0,34.987829999999995,-85.28834300000001,0,34.98783843,-85.28834619,0.002898550725,0.0,0.0,,110,110,3.0,1559,1559,DODDS + 48TH,-85.28834
242,10.1,Route #10A,INBOUND,,Route #10,,,Bus,60,214,DODSON/FAIRLEIGH,N,0,,,,,0.0,0.12893039999999997,0.0,0,0,30.0,0,0,0.0,0,0,0,0.0,0,0,210.0,0,0.0,0,0,0,0,0,0,0,0.0,0.0,0.0,0.0,35.06841,-85.252183,0,35.068409,-85.25218199999999,0.0,0.0,0.0,,7,7,0.0,214,214,DODSON + FAIRLEIGH,-85.25218000000001
243,10.1,Route #10A,OUTBOUND,,Route #10,,,Bus,470,214,DODSON/FAIRLEIGH,N,0,,,,,0.00125,0.12893039999999997,0.1543652993,0,0,30.0,1,8,0.25,0,0,0,0.036000000000000004,1,2,2482.0,158,20.3710032,0,1,0,0,2,0,0,6.0,0.0,0.0,0.0,35.06841,-85.252183,0,35.06841029,-85.25218171,0.0,0.0,0.0,,82,82,0.0,214,214,DODSON + FAIRLEIGH,-85.25218000000001
244,10.1,Route #10A,INBOUND,,Route #10,,,Bus,180,253,ROANOKE/OLIVE,S,0,,,,,0.1353608247,0.1499616,0.2094189316,0,0,30.0,2,8,0.25,0,0,0,0.061,7,2,2936.0,218,32.6916288,1,7,2,0,0,0,0,7.0,0.0,0.0,0.0,35.05794,-85.261608,0,35.05794212,-85.26160425,0.0,0.0,0.0,,97,97,1.0,253,253,ROANOKE + OLIVE,-85.26161
245,10.1,Route #10A,INBOUND,,Route #10,,,Bus,250,219,DODSON AVENUE HEALTH CENTER,N,0,,,,,0.19190476190000003,0.28133040000000004,0.570034585,0,0,30.0,3,10,0.3125,0,0,0,0.521,16,4,696.0,75,21.09978,0,16,3,0,2,0,0,10.0,0.0,0.0,0.0,35.05039,-85.262038,0,35.05033152,-85.26208243,0.0,0.0,0.0,,23,23,25.0,219,219,DODSON AVENUE HEALTH CENTER,-85.26204
246,10.1,Route #10A,INBOUND,,Route #10,,,Bus,300,261,OKNOB/957,W,0,,,,,0.008275862069,0.1167384,0.2925694444,0,0,30.0,4,16,0.5,0,0,0,0.133,5,1,906.0,121,14.125346400000002,0,5,0,0,1,0,0,13.0,0.0,0.0,0.0,35.04942,-85.267188,0,35.04940997,-85.26720245,0.0,0.0,0.0,,30,30,6.0,261,261,OKNOB + 957,-85.26719
247,10.1,Route #10A,INBOUND,,Route #10,,,Bus,310,262,OKNOB/MILNE,S,0,,,,,0.03458333333,0.16002,0.3331478444,0,0,30.0,3,16,0.5,0,0,0,0.12300000000000001,12,4,2936.0,325,52.0065,0,12,2,0,2,0,0,11.0,0.0,0.0,0.0,35.048629999999996,-85.267967,0,35.04862115,-85.26797171,0.0,0.0,0.0,,97,97,4.0,262,262,OKNOB + MILNE,-85.26796999999999
248,10.1,Route #10A,INBOUND,,Route #10,,,Bus,310,262,OKNOB/MILNE,S,0,,,,,0.03458333333,0.16002,0.3331478444,0,0,30.0,3,16,0.5,0,0,0,0.12300000000000001,12,4,2936.0,325,52.0065,0,12,2,0,2,0,0,11.0,0.0,0.0,0.0,35.048629999999996,-85.267967,0,35.04862115,-85.26797171,0.0,0.0,0.0,,97,97,4.0,1029,1029,HOLTZCLAW + CITICO,-85.27714
249,19.0,Route #19,OUTBOUND,,Route #19,,,Bus,250,1029,HOLTZCLAW/CITICO,N,0,,,,,0.0175,0.9073896,2.509024621,0,0,30.0,4,11,0.36666666670000003,0,0,0,0.2,2,3,600.0,89,80.75767440000001,0,2,0,0,3,0,0,14.0,0.0,0.0,0.0,35.048629999999996,-85.277138,0,35.0486584,-85.27713035,0.0,0.0,0.0,,20,20,11.0,262,262,OKNOB + MILNE,-85.26796999999999
250,19.0,Route #19,OUTBOUND,,Route #19,,,Bus,250,1029,HOLTZCLAW/CITICO,N,0,,,,,0.0175,0.9073896,2.509024621,0,0,30.0,4,11,0.36666666670000003,0,0,0,0.2,2,3,600.0,89,80.75767440000001,0,2,0,0,3,0,0,14.0,0.0,0.0,0.0,35.048629999999996,-85.277138,0,35.0486584,-85.27713035,0.0,0.0,0.0,,20,20,11.0,1029,1029,HOLTZCLAW + CITICO,-85.27714
251,10.1,Route #10A,INBOUND,,Route #10,,,Bus,390,269,3RD/HAWTHORNE,N,0,,,,,0.025416666669999997,0.33528,0.8483676976000001,0,0,30.0,4,17,0.53125,0,0,0,0.12300000000000001,16,1,2936.0,395,132.4356,0,15,1,1,0,0,0,13.0,0.0,0.0,0.0,35.04135,-85.273228,0,35.04135517,-85.273229,0.0,0.0,0.0,,97,97,2.0,269,269,3RD + HAWTHORNE,-85.27323
252,10.9,Route #10G 58:10G,INBOUND,,Route #10,,,Bus,860,269,3RD/HAWTHORNE,N,0,,,,,0.022268041239999998,0.33528,0.6679553265,0,0,30.0,3,11,0.34375,0,0,0,0.10300000000000001,17,1,2940.0,311,104.27208,1,17,1,0,0,0,0,10.0,0.0,0.0,0.0,35.04135,-85.273228,0,35.04135386,-85.27323127,0.0,0.0,0.0,,97,97,2.0,269,269,3RD + HAWTHORNE,-85.27323
253,10.1,Route #10A,OUTBOUND,,Route #10,,,Bus,380,191,ROANOKE/COOLEY,N,0,,,,,0.02790123457,0.19964400000000002,0.33887657060000004,0,0,30.0,2,12,0.375,0,0,0,0.158,3,17,2482.0,224,44.720256,0,3,7,0,10,0,0,9.0,0.0,0.0,0.0,35.05035,-85.26571,0,35.05036141,-85.26569948,0.0,0.0,0.0,,82,82,5.0,191,191,ROANOKE + COOLEY,-85.26571
254,10.1,Route #10A,OUTBOUND,,Route #10,,,Bus,380,191,ROANOKE/COOLEY,N,0,,,,,0.02790123457,0.19964400000000002,0.33887657060000004,0,0,30.0,2,12,0.375,0,0,0,0.158,3,17,2482.0,224,44.720256,0,3,7,0,10,0,0,9.0,0.0,0.0,0.0,35.05035,-85.26571,0,35.05036141,-85.26569948,0.0,0.0,0.0,,82,82,5.0,701,701,WEST SHEPHERD + WATERFORD,-85.18096
255,10.1,Route #10A,OUTBOUND,,Route #10,,,Bus,410,193,ROANOKE/WILCOX SE,N,0,,,,,0.05925925926,0.2090928,0.32797949,0,0,30.0,2,12,0.375,0,0,0,0.28,8,17,2482.0,207,43.2822096,0,8,12,0,7,0,0,8.0,0.0,0.0,0.0,35.05362,-85.26393,0,35.05362156,-85.26392552,0.0,0.0,0.0,,82,82,1.0,193,193,ROANOKE + WILCOX SE,-85.26393
256,10.6,Route #10C,OUTBOUND,,Route #10,,,Bus,210,174,3RD/SISKIN,E,0,,,,,0.0,0.11990070000000001,0.2522194602,0,0,30.0,3,10,0.3125,0,0,0,0.0,0,0,964.0,113,12.989052000000001,0,0,0,0,0,0,0,11.0,0.0,0.0,0.0,35.050059999999995,-85.296195,0,35.050059999999995,-85.296196,0.0,0.0,0.0,,32,32,0.0,174,174,3RD + SISKIN,-85.2962
257,10.9,Route #10G 58:10G,OUTBOUND,,Route #10,,,Bus,200,174,3RD/SISKIN,E,0,,,,,0.001449275362,0.09144,0.2159090909,0,0,30.0,3,10,0.3125,0,0,0,0.027999999999999997,3,0,2128.0,266,24.32304,0,3,0,0,0,0,0,12.0,0.0,0.0,0.0,35.050059999999995,-85.296195,0,35.05005248,-85.29617278,0.0,0.0,0.0,,70,70,7.0,174,174,3RD + SISKIN,-85.2962
258,19.0,Route #19,OUTBOUND,,Route #19,,,Bus,130,174,3RD/SISKIN,E,0,,,,,0.0,0.09144,0.2897727273,0,0,30.0,5,12,0.4,0,0,0,0.0,0,0,600.0,102,9.326880000000001,0,0,0,0,0,0,0,17.0,0.0,0.0,0.0,35.050059999999995,-85.296195,0,35.050059999999995,-85.296196,0.0,0.0,0.0,,20,20,0.0,174,174,3RD + SISKIN,-85.2962
259,10.6,Route #10C,OUTBOUND,,Route #10,,,Bus,270,100230,3rdCen0,X,-1,,,,,0.3690625,,,0,0,30.0,3,10,0.3125,0,0,0,0.0,0,0,964.0,103,,0,0,0,0,0,0,0,10.0,,,,35.04687,-85.28839,0,35.04667172,-85.28781484,0.0,0.0,,,32,32,187.0,1516,1516,WILCOX + LILLIAN,-85.23510999999999
260,10.6,Route #10C,OUTBOUND,,Route #10,,,Bus,420,318,WILLOW/OAK,S,0,,,,,0.099,0.0966216,0.2341477273,0,0,30.0,3,9,0.3,0,0,0,0.2,5,1,600.0,78,7.5364848,0,5,1,0,0,0,0,13.0,0.0,0.0,0.0,35.03581,-85.27135200000001,0,35.03574715,-85.27138775,0.0,0.0,0.0,,20,20,25.0,318,318,WILLOW + OAK,-85.27135
261,10.6,Route #10C,OUTBOUND,,Route #10,,,Bus,420,318,WILLOW/OAK,S,0,,,,,0.099,0.0966216,0.2341477273,0,0,30.0,3,9,0.3,0,0,0,0.2,5,1,600.0,78,7.5364848,0,5,1,0,0,0,0,13.0,0.0,0.0,0.0,35.03581,-85.27135200000001,0,35.03574715,-85.27138775,0.0,0.0,0.0,,20,20,25.0,479,479,BROAD + 17TH,-85.31209
262,10.9,Route #10G 58:10G,OUTBOUND,,Route #10,,,Bus,380,318,WILLOW/OAK,S,0,,,,,0.02260869565,0.0966216,0.1801136364,0,0,30.0,3,9,0.28125,0,0,0,0.085,6,1,2128.0,210,20.290536,0,6,0,0,1,0,0,9.0,0.0,0.0,0.0,35.03581,-85.27135200000001,0,35.03576593,-85.27138029,0.0,0.0,0.0,,70,70,18.0,318,318,WILLOW + OAK,-85.27135
263,10.9,Route #10G 58:10G,OUTBOUND,,Route #10,,,Bus,380,318,WILLOW/OAK,S,0,,,,,0.02260869565,0.0966216,0.1801136364,0,0,30.0,3,9,0.28125,0,0,0,0.085,6,1,2128.0,210,20.290536,0,6,0,0,1,0,0,9.0,0.0,0.0,0.0,35.03581,-85.27135200000001,0,35.03576593,-85.27138029,0.0,0.0,0.0,,70,70,18.0,479,479,BROAD + 17TH,-85.31209
264,10.6,Route #10C,OUTBOUND,,Route #10,,,Bus,590,1593,GLENWOOD/CITICO,N,0,,,,,0.0053125,0.12009120000000001,0.212204072,0,0,30.0,2,7,0.21875,0,0,0,0.031,0,1,964.0,91,10.9282992,0,0,1,0,0,0,0,9.0,0.0,0.0,0.0,35.04162,-85.258318,0,35.04161859,-85.25831816,0.0,0.0,0.0,,32,32,1.0,1593,1593,GLENWOOD + CITICO,-85.25832
265,10.9,Route #10G 58:10G,OUTBOUND,,Route #10,,,Bus,540,1593,GLENWOOD/CITICO,N,0,,,,,0.04228571429,0.12009120000000001,0.20254329,0,0,30.0,2,7,0.21875,0,0,0,0.157,3,11,2128.0,190,22.817328,0,3,8,0,3,0,0,8.0,0.0,0.0,0.0,35.04162,-85.258318,0,35.04162097,-85.25832471,0.0,0.0,0.0,,70,70,2.0,1593,1593,GLENWOOD + CITICO,-85.25832
266,10.6,Route #10C,OUTBOUND,,Route #10,,,Bus,610,333,GLENWOOD/MISSION,N,0,,,,,0.0,0.1246632,0.22270359850000002,0,0,30.0,2,8,0.25,0,0,0,0.0,0,0,964.0,92,11.4690144,0,0,0,0,0,0,0,9.0,0.0,0.0,0.0,35.045120000000004,-85.25690300000001,0,35.045120000000004,-85.256905,0.0,0.0,0.0,,32,32,1.0,333,333,GLENWOOD + MISSION,-85.2569
267,10.9,Route #10G 58:10G,OUTBOUND,,Route #10,,,Bus,560,333,GLENWOOD/MISSION,N,0,,,,,0.007285714286,0.1246632,0.2058279221,0,0,30.0,2,7,0.21875,0,0,0,0.057,0,4,2128.0,186,23.1873552,0,0,3,0,1,0,0,8.0,0.0,0.0,0.0,35.045120000000004,-85.25690300000001,0,35.045122799999994,-85.25690334,0.0,0.0,0.0,,70,70,1.0,333,333,GLENWOOD + MISSION,-85.2569
268,10.6,Route #10C,OUTBOUND,,Route #10,,,Bus,680,1383,CHAMBERLAIN/CAMDEN,N,0,,,,,0.0,0.4242816,0.6810606061,0,0,30.0,2,8,0.25,0,0,0,0.0,0,0,364.0,31,13.1527296,0,0,0,0,0,0,0,8.0,0.0,0.0,0.0,35.05273,-85.255903,0,35.052731,-85.255905,0.0,0.0,0.0,,12,12,1.0,1383,1383,CHAMBERLAIN + CAMDEN,-85.2559
269,10.6,Route #10C,OUTBOUND,,Route #10,,,Bus,720,344,CHAMBERLAIN/EMMA,N,0,,,,,0.00625,0.2279904,0.3497395833,0,0,30.0,2,8,0.25,0,0,0,0.031,0,1,964.0,79,18.0112416,0,0,1,0,0,0,0,8.0,0.0,0.0,0.0,35.06088,-85.2515,0,35.06088053,-85.25150134,0.0,0.0,0.0,,32,32,0.0,344,344,CHAMBERLAIN + EMMA,-85.2515
270,10.9,Route #10G 58:10G,OUTBOUND,,Route #10,,,Bus,660,344,CHAMBERLAIN/EMMA,N,0,,,,,0.003142857143,0.2279904,0.2873809524,0,0,30.0,2,6,0.1875,0,0,0,0.027999999999999997,1,5,2128.0,142,32.374636800000005,0,1,0,0,5,0,0,6.0,0.0,0.0,0.0,35.06088,-85.2515,0,35.06090471,-85.25148774,0.0,0.0,0.0,,70,70,10.0,344,344,CHAMBERLAIN + EMMA,-85.2515
271,19.0,Route #19,OUTBOUND,,Route #19,,,Bus,380,344,CHAMBERLAIN/EMMA,N,0,,,,,0.0,0.2279904,0.5454166667,0,0,30.0,3,10,0.3333333333,0,0,0,0.0,0,0,600.0,77,17.5552608,0,0,0,0,0,0,0,12.0,0.0,0.0,0.0,35.06088,-85.2515,0,35.060879,-85.251503,0.0,0.0,0.0,,20,20,1.0,344,344,CHAMBERLAIN + EMMA,-85.2515
272,10.6,Route #10C,OUTBOUND,,Route #10,,,Bus,740,345,CHAMBERLAIN/CRUTCHFIELD,N,0,,,,,0.0,0.155448,0.2384588068,0,0,30.0,2,8,0.25,0,0,0,0.0,0,0,964.0,79,12.280391999999999,0,0,0,0,0,0,0,8.0,0.0,0.0,0.0,35.06276,-85.250498,0,35.062759,-85.250496,0.0,0.0,0.0,,32,32,1.0,345,345,CHAMBERLAIN + CRUTCHFIELD,-85.2505
273,10.9,Route #10G 58:10G,OUTBOUND,,Route #10,,,Bus,670,345,CHAMBERLAIN/CRUTCHFIELD,N,0,,,,,0.0055714285710000006,0.155448,0.19180194809999998,0,0,30.0,1,6,0.1875,0,0,0,0.042,1,4,2128.0,139,21.607272000000002,0,1,3,0,1,0,0,6.0,0.0,0.0,0.0,35.06276,-85.250498,0,35.06276184,-85.25049416,0.0,0.0,0.0,,70,70,1.0,345,345,CHAMBERLAIN + CRUTCHFIELD,-85.2505
274,19.0,Route #19,OUTBOUND,,Route #19,,,Bus,390,345,CHAMBERLAIN/CRUTCHFIELD,N,0,,,,,0.0,0.155448,0.371875,0,0,30.0,3,10,0.3333333333,0,0,0,0.0,0,0,600.0,77,11.969496000000001,0,0,0,0,0,0,0,12.0,0.0,0.0,0.0,35.06276,-85.250498,0,35.062759,-85.250496,0.0,0.0,0.0,,20,20,1.0,345,345,CHAMBERLAIN + CRUTCHFIELD,-85.2505
275,10.6,Route #10C,OUTBOUND,,Route #10,,,Bus,760,347,CHAMBERLAIN/GLASS,N,0,,,,,0.0140625,0.3527298,0.5308948864,0,0,30.0,2,7,0.21875,0,0,0,0.156,5,3,964.0,75,27.340559999999996,0,5,3,0,0,0,0,7.0,0.0,0.0,0.0,35.06524,-85.249115,0,35.06524425,-85.24911069,0.0,0.0,0.0,,32,32,2.0,347,347,CHAMBERLAIN + GLASS,-85.24911999999999
276,10.9,Route #10G 58:10G,OUTBOUND,,Route #10,,,Bus,690,347,CHAMBERLAIN/GLASS,N,0,,,,,0.007285714286,0.2145792,0.2571428571,0,0,30.0,1,6,0.1875,0,0,0,0.042,0,3,2128.0,135,28.968192,0,0,3,0,0,0,0,6.0,0.0,0.0,0.0,35.06524,-85.249115,0,35.06524586,-85.24911064,0.0,0.0,0.0,,70,70,3.0,347,347,CHAMBERLAIN + GLASS,-85.24911999999999
277,19.0,Route #19,OUTBOUND,,Route #19,,,Bus,410,347,CHAMBERLAIN/GLASS,N,0,,,,,0.0255,0.45902879999999996,1.055340909,0,0,30.0,3,10,0.3333333333,0,0,0,0.1,1,2,600.0,74,33.9681312,0,1,2,0,0,0,0,12.0,0.0,0.0,0.0,35.06524,-85.249115,0,35.06524585,-85.2491093,0.0,0.0,0.0,,20,20,3.0,347,347,CHAMBERLAIN + GLASS,-85.24911999999999
278,10.6,Route #10C,OUTBOUND,,Route #10,,,Bus,860,303,BONNY OAKS/TALATHA,N,0,,,,,0.0165625,0.5449824000000001,0.7407670454999999,0,0,30.0,2,6,0.1875,0,0,0,0.031,0,1,964.0,70,38.148768,0,0,1,0,0,0,0,7.0,0.0,0.0,0.0,35.07573,-85.23102,0,35.07572997,-85.23101681,0.0,0.0,0.0,,32,32,1.0,303,303,BONNY OAKS + TALATHA,-85.23102
279,10.6,Route #10C,OUTBOUND,,Route #10,,,Bus,880,348,BONNY OAKS/ADDISON,E,0,,,,,0.0,0.5138166000000001,0.8165482955,0,0,30.0,2,6,0.1875,0,0,0,0.0,0,0,964.0,70,42.051427200000006,0,0,0,0,0,0,0,7.0,0.0,0.0,0.0,35.07948,-85.227388,0,35.079479,-85.227386,0.0,0.0,0.0,,32,32,1.0,348,348,BONNY OAKS + ADDISON,-85.22739
280,10.9,Route #10G 58:10G,INBOUND,,Route #10,,,Bus,180,348,BONNY OAKS/ADDISON,E,0,,,,,,1.2158472,1.510984848,0,0,30.0,2,4,0.1333333333,0,0,0,0.0,0,0,60.0,4,4.8633888,0,0,0,0,0,0,0,6.0,0.0,0.0,0.0,35.07948,-85.227388,0,,,0.0,0.0,0.0,,2,2,,348,348,BONNY OAKS + ADDISON,-85.22739
281,10.6,Route #10C,OUTBOUND,,Route #10,,,Bus,890,1386,BONNY OAKS/BRYANT,E,0,,,,,0.0,0.9549384,1.137294823,0,0,30.0,1,6,0.1875,0,0,0,0.0,0,0,724.0,46,43.9271664,0,0,0,0,0,0,0,6.0,0.0,0.0,0.0,35.0795,-85.22431999999999,0,35.079498,-85.224319,0.0,0.0,0.0,,24,24,1.0,1386,1386,BONNY OAKS + BRYANT,-85.22431999999999
282,10.6,Route #10C,OUTBOUND,,Route #10,,,Bus,1010,222,JERSEY PIKE/GOODWILL,S,0,,,,,0.560625,0.41239440000000005,0.400390625,0,0,30.0,1,5,0.15625,0,0,0,0.687,17,19,964.0,50,20.61972,0,17,19,0,1,0,0,5.0,0.0,0.0,0.0,35.0916,-85.18042,0,35.09151163,-85.18047028,0.0,0.0,0.0,,32,32,36.0,222,222,JERSEY PIKE + GOODWILL,-85.18042
283,10.9,Route #10G 58:10G,INBOUND,,Route #10,,,Bus,270,222,JERSEY PIKE/GOODWILL,S,0,,,,,,0.41239440000000005,0.5125,0,0,30.0,2,4,0.1333333333,0,0,0,0.0,0,0,60.0,4,1.6495776000000002,0,0,0,0,0,0,0,6.0,0.0,0.0,0.0,35.0916,-85.18042,0,,,0.0,0.0,0.0,,2,2,,222,222,JERSEY PIKE + GOODWILL,-85.18042
284,10.6,Route #10C,OUTBOUND,,Route #10,,,Bus,1020,223,JERSEY PIKE/OAKWOOD,W,0,,,,,0.0,1.0189464,1.028858902,0,0,30.0,1,5,0.15625,0,0,0,0.25,6,4,964.0,52,52.9852128,0,6,1,0,3,0,0,5.0,0.0,0.0,0.0,35.088229999999996,-85.182327,0,35.088229999999996,-85.182327,0.0,0.0,0.0,,32,32,0.0,223,223,JERSEY PIKE + OAKWOOD,-85.18233000000001
285,10.9,Route #10G 58:10G,INBOUND,,Route #10,,,Bus,280,223,JERSEY PIKE/OAKWOOD,W,0,,,,,,1.0189464,1.266287879,0,0,30.0,2,4,0.1333333333,0,0,0,0.0,0,0,60.0,4,4.0757856,0,0,0,0,0,0,0,6.0,0.0,0.0,0.0,35.088229999999996,-85.182327,0,,,0.0,0.0,0.0,,2,2,,223,223,JERSEY PIKE + OAKWOOD,-85.18233000000001
286,10.6,Route #10C,OUTBOUND,,Route #10,,,Bus,1040,1371,HIGHWAY 58/OAK HILL SHELTER,W,0,,,,,0.0359375,0.5867399999999999,0.7747395833,0,0,30.0,2,5,0.15625,0,0,0,0.25,12,2,964.0,68,39.89832,0,12,2,0,0,0,0,7.0,0.0,0.0,0.0,35.08498,-85.19695,0,35.08497594,-85.19695466,0.0,0.0,0.0,,32,32,2.0,1371,1371,HIGHWAY 58 + OAK HILL SHELTER,-85.19695
287,10.9,Route #10G 58:10G,INBOUND,,Route #10,,,Bus,300,1371,HIGHWAY 58/OAK HILL SHELTER,W,0,,,,,,0.5867399999999999,0.7291666667,0,0,30.0,2,4,0.1333333333,0,0,0,0.0,0,0,60.0,4,2.3469599999999997,0,0,0,0,0,0,0,6.0,0.0,0.0,0.0,35.08498,-85.19695,0,,,0.0,0.0,0.0,,2,2,,1371,1371,HIGHWAY 58 + OAK HILL SHELTER,-85.19695
288,10.6,Route #10C,OUTBOUND,,Route #10,,,Bus,1060,226,BONNY OAKS/ACCESS,W,0,,,,,0.0,1.2347448,1.654350142,0,0,30.0,2,5,0.15625,0,0,0,0.031,1,0,964.0,69,85.1973912,0,1,0,0,0,0,0,7.0,0.0,0.0,0.0,35.08101,-85.213543,0,35.081009,-85.21354699999999,0.0,0.0,0.0,,32,32,1.0,226,226,BONNY OAKS + ACCESS,-85.21354000000001
289,10.9,Route #10G 58:10G,INBOUND,,Route #10,,,Bus,320,226,BONNY OAKS/ACCESS,W,0,,,,,,1.2347448,1.5344696969999998,0,0,30.0,2,4,0.1333333333,0,0,0,0.0,0,0,60.0,4,4.9389792,0,0,0,0,0,0,0,6.0,0.0,0.0,0.0,35.08101,-85.213543,0,,,0.0,0.0,0.0,,2,2,,226,226,BONNY OAKS + ACCESS,-85.21354000000001
290,10.6,Route #10C,OUTBOUND,,Route #10,,,Bus,1070,227,CAMPBELL/ADDISON,W,0,,,,,0.0,0.9674351999999999,1.3337713070000001,0,0,30.0,2,5,0.15625,0,0,0,0.031,2,0,964.0,71,68.6878992,0,2,0,0,0,0,0,7.0,0.0,0.0,0.0,35.07956,-85.226895,0,35.079559,-85.22689799999999,0.0,0.0,0.0,,32,32,1.0,227,227,CAMPBELL + ADDISON,-85.2269
291,10.9,Route #10G 58:10G,INBOUND,,Route #10,,,Bus,330,227,CAMPBELL/ADDISON,W,0,,,,,,0.9674351999999999,1.202272727,0,0,30.0,2,4,0.1333333333,0,0,0,0.0,0,0,60.0,4,3.8697407999999998,0,0,0,0,0,0,0,6.0,0.0,0.0,0.0,35.07956,-85.226895,0,,,0.0,0.0,0.0,,2,2,,227,227,CAMPBELL + ADDISON,-85.2269
292,10.6,Route #10C,OUTBOUND,,Route #10,,,Bus,1110,231,STUART/WHEELER,W,0,,,,,0.0,0.13136879999999998,0.1877462121,0,0,30.0,2,5,0.15625,0,0,0,0.0,0,0,904.0,69,9.0644472,0,0,0,0,0,0,0,7.0,0.0,0.0,0.0,35.07083,-85.24754200000001,0,35.070831,-85.24754300000001,0.0,0.0,0.0,,30,30,0.0,231,231,STUART + WHEELER,-85.24754
293,10.9,Route #10G 58:10G,OUTBOUND,,Route #10,,,Bus,740,231,STUART/WHEELER,W,0,,,,,0.0,0.13136879999999998,0.15392857140000002,0,0,30.0,1,7,0.21875,0,0,0,0.013999999999999999,1,0,2128.0,132,17.340681600000003,0,1,0,0,0,0,0,6.0,0.0,0.0,0.0,35.07083,-85.24754200000001,0,35.070831,-85.24754300000001,0.0,0.0,0.0,,70,70,0.0,231,231,STUART + WHEELER,-85.24754
294,10.9,Route #10G 58:10G,INBOUND,,Route #10,,,Bus,50,290,STUART/WHEELER,E,0,,,,,0.002,0.1319784,0.1755926916,0,0,30.0,2,8,0.25,0,0,0,0.057999999999999996,6,3,2576.0,182,24.0200688,0,0,3,0,0,0,0,7.0,0.0,0.0,0.0,35.070890000000006,-85.24779699999999,0,35.07088966,-85.24779455,0.0,0.0,0.0,,85,85,1.0,290,290,STUART + WHEELER,-85.2478
295,10.9,Route #10G 58:10G,INBOUND,,Route #10,,,Bus,90,294,CHAMBERLAIN/FAIRLEIGH,S,0,,,,,0.017325581399999998,0.19062569070000002,0.27115549829999996,0,0,30.0,2,8,0.25,0,0,0,0.061,5,2,2940.0,223,42.3291,0,5,3,0,0,0,0,7.0,0.0,0.0,0.0,35.067209999999996,-85.248115,0,35.06720652,-85.24811278,0.0,0.0,0.0,,97,97,1.0,294,294,CHAMBERLAIN + FAIRLEIGH,-85.24812
296,10.9,Route #10G 58:10G,INBOUND,,Route #10,,,Bus,390,294,CHAMBERLAIN/FAIRLEIGH,S,0,,,,,0.0,0.18440399999999998,0.22916666670000002,0,0,30.0,2,4,0.1333333333,0,0,0,0.0,0,0,60.0,4,0.7376159999999999,0,0,0,0,0,0,0,6.0,0.0,0.0,0.0,35.067209999999996,-85.248115,0,35.067211,-85.24811600000001,0.0,0.0,0.0,,2,2,0.0,294,294,CHAMBERLAIN + FAIRLEIGH,-85.24812
297,10.9,Route #10G 58:10G,INBOUND,,Route #10,,,Bus,490,369,CHAMBERLAIN/CAMDEN,S,0,,,,,0.01477272727,0.1255776,0.20834895350000002,0,0,30.0,2,8,0.25,0,0,0,0.07200000000000001,8,2,2940.0,259,32.5245984,0,8,2,0,0,0,0,8.0,0.0,0.0,0.0,35.05304,-85.25582299999999,0,35.05303559,-85.25582309,0.0,0.0,0.0,,97,97,2.0,369,369,CHAMBERLAIN + CAMDEN,-85.25582
298,19.0,Route #19,INBOUND,,Route #19,,,Bus,580,369,CHAMBERLAIN/CAMDEN,S,0,,,,,0.01789473684,0.1255776,0.21458333329999998,0,0,30.0,2,7,0.23333333329999997,0,0,0,0.05,1,0,600.0,55,6.906768,0,1,0,0,0,0,0,9.0,0.0,0.0,0.0,35.05304,-85.25582299999999,0,35.05303553,-85.25582063,0.0,0.0,0.0,,20,20,2.0,369,369,CHAMBERLAIN + CAMDEN,-85.25582
299,10.9,Route #10G 58:10G,INBOUND,,Route #10,,,Bus,550,1395,CHAMBERLAIN/WILSON,S,0,,,,,0.07712643677999999,0.7165848000000001,1.242055423,0,0,30.0,2,9,0.28125,0,0,0,0.315,30,19,2880.0,265,189.894972,0,30,13,0,4,0,0,9.0,0.0,0.0,0.0,35.04956,-85.25773000000001,0,35.04958391,-85.25772109,0.0,0.0,0.0,,95,95,9.0,1395,1395,CHAMBERLAIN + WILSON,-85.25773000000001
300,10.9,Route #10G 58:10G,INBOUND,,Route #10,,,Bus,620,379,GLENWOOD/4TH,S,0,,,,,0.018000000000000002,0.10119360000000001,0.1990081225,0,0,30.0,3,8,0.25,0,0,0,0.01,2,0,2940.0,307,31.0664352,2,2,0,0,0,0,0,10.0,0.0,0.0,0.0,35.0362,-85.261545,0,35.03620003,-85.261543,0.0,0.0,0.0,,97,97,1.0,379,379,GLENWOOD + 4TH,-85.26155
301,10.9,Route #10G 58:10G,INBOUND,,Route #10,,,Bus,690,386,UNION/WATKINS,W,0,,,,,0.0,0.15483840000000001,0.2757419556,0,0,30.0,2,8,0.25,0,0,0,0.0,0,0,2940.0,278,43.04507520000001,0,0,0,0,0,0,0,9.0,0.0,0.0,0.0,35.02987,-85.268952,0,35.029869,-85.268951,0.0,0.0,0.0,,97,97,0.0,386,386,UNION + WATKINS,-85.26895
302,10.9,Route #10G 58:10G,INBOUND,,Route #10,,,Bus,770,1391,WILLOW/MCCALLIE,N,0,,,,,0.1027835052,0.10363199999999999,0.17127460170000003,0,0,30.0,2,8,0.25,0,0,0,0.14400000000000002,9,14,2940.0,258,26.737056,0,9,11,0,3,0,0,8.0,0.0,0.0,0.0,35.03467,-85.271893,0,35.03467247,-85.27190007,0.0,0.0,0.0,,97,97,2.0,1391,1391,WILLOW + MCCALLIE,-85.27189
303,10.9,Route #10G 58:10G,INBOUND,,Route #10,,,Bus,820,397,3RD/WILLOW,N,0,,,,,0.0624742268,0.19068225149999998,0.3193123243,0,0,30.0,2,9,0.28125,0,0,0,0.113,7,6,2940.0,261,49.846687200000005,0,7,8,0,0,0,0,8.0,0.0,0.0,0.0,35.03918,-85.26954,0,35.03919585,-85.26953459999999,0.0,0.0,0.0,,97,97,6.0,397,397,3RD + WILLOW,-85.26954
304,13.0,Route #13,INBOUND,,Route #13,,,Bus,90,1255,ROSSVILLE BLVD/46TH,N,0,,,,,0.00375,0.1024128,0.2211363636,0,0,30.0,3,9,0.3,0,0,0,0.025,0,1,1200.0,139,14.235379199999999,0,0,0,0,1,0,0,11.0,0.0,0.0,0.0,34.99046,-85.289902,0,34.990463399999996,-85.28990390000001,0.0,0.0,0.0,,40,40,1.0,1255,1255,ROSSVILLE BLVD + 46TH,-85.2899
305,13.0,Route #13,INBOUND,,Route #13,,,Bus,100,1256,ROSSVILLE BLVD/45TH,N,0,,,,,0.006999999999999999,0.0984504,0.2141098485,0,0,30.0,3,9,0.3,0,0,0,0.025,1,0,1200.0,140,13.783056,0,1,0,0,0,0,0,11.0,0.0,0.0,0.0,34.99137,-85.290077,0,34.99137453,-85.29007853,0.0,0.0,0.0,,40,40,2.0,1256,1256,ROSSVILLE BLVD + 45TH,-85.29008
306,13.0,Route #13,INBOUND,,Route #13,,,Bus,250,1271,4TH AVE/32RD,N,0,,,,,0.003,0.13959839999999998,0.3556439394,0,0,30.0,4,11,0.36666666670000003,0,0,0,0.125,8,4,1200.0,164,22.8941376,0,8,4,0,0,0,0,13.0,0.0,0.0,0.0,35.00658,-85.285625,0,35.00658183,-85.28562218,0.0,0.0,0.0,,40,40,1.0,1271,1271,4TH AVE + 32RD,-85.28563
307,13.0,Route #13,INBOUND,,Route #13,,,Bus,270,1273,4TH AVE/30TH,N,0,,,,,0.0,0.1085088,0.2747537879,0,0,30.0,4,11,0.36666666670000003,0,0,0,0.0,0,0,1200.0,163,17.6869344,0,0,0,0,0,0,0,13.0,0.0,0.0,0.0,35.00873,-85.284513,0,35.008732,-85.284515,0.0,0.0,0.0,,40,40,1.0,1273,1273,4TH AVE + 30TH,-85.28451
308,13.0,Route #13,INBOUND,,Route #13,,,Bus,480,1289,ROSSVILLE BLVD/DORRIS,N,0,,,,,0.0,0.10363199999999999,0.3960227273,0,0,30.0,6,15,0.5,0,0,0,0.0,0,0,1200.0,246,25.493472,0,0,0,0,0,0,0,20.0,0.0,0.0,0.0,35.02528,-85.298468,0,35.02528,-85.29847,0.0,0.0,0.0,,40,40,1.0,1289,1289,ROSSVILLE BLVD + DORRIS,-85.29847
309,13.0,Route #13,INBOUND,,Route #13,,,Bus,510,1292,CENTRAL/17TH,N,0,,,,,0.0,0.21061679999999997,0.8015861742,0,0,30.0,6,15,0.5,0,0,0,0.025,0,1,1200.0,245,51.601116,0,0,1,0,0,0,0,20.0,0.0,0.0,0.0,35.03004,-85.297292,0,35.030041,-85.29729499999999,0.0,0.0,0.0,,40,40,1.0,1292,1292,CENTRAL + 17TH,-85.29729
310,13.0,Route #13,INBOUND,,Route #13,,,Bus,550,1299,10TH/FAIRVIEW,W,0,,,,,0.0075,0.118872,0.446875,0,0,30.0,6,15,0.5,0,0,0,0.05,1,1,1200.0,242,28.767024,0,1,1,0,0,0,0,20.0,0.0,0.0,0.0,35.03926,-85.294128,0,35.03926138,-85.29412953,0.0,0.0,0.0,,40,40,1.0,1299,1299,10TH + FAIRVIEW,-85.29413000000001
311,13.0,Route #13,INBOUND,,Route #13,,,Bus,620,1305,10TH/DOUGLAS,N,0,,,,,0.0,0.2036064,0.7053219696999999,0,0,30.0,5,14,0.4666666667,0,0,0,0.3,7,36,1200.0,223,45.40422720000001,4,5,17,2,19,0,0,18.0,0.0,0.0,0.0,35.042629999999996,-85.303285,0,35.042629,-85.30328399999999,0.0,0.0,0.0,,40,40,0.0,1305,1305,10TH + DOUGLAS,-85.30329
312,13.0,Route #13,INBOUND,,Route #13,,,Bus,630,1307,10TH/KING,W,0,,,,,,0.07254239999999999,0.2512973485,0,0,30.0,5,14,0.4666666667,0,0,0,0.0,0,0,1200.0,223,16.1769552,0,0,0,0,0,0,0,18.0,0.0,0.0,0.0,35.04338,-85.30530300000001,0,,,0.0,0.0,0.0,,40,40,,758,758,BOYNTON + RENAISSANCE,-85.31916
313,13.0,Route #13,INBOUND,,Route #13,,,Bus,630,1307,10TH/KING,W,0,,,,,,0.07254239999999999,0.2512973485,0,0,30.0,5,14,0.4666666667,0,0,0,0.0,0,0,1200.0,223,16.1769552,0,0,0,0,0,0,0,18.0,0.0,0.0,0.0,35.04338,-85.30530300000001,0,,,0.0,0.0,0.0,,40,40,,1307,1307,10TH + KING,-85.3053
314,21.0,Route #21,INBOUND,,Route #21,,,Bus,40,758,BOYNTON/RENAISSANCE,E,0,,,,,0.02775280899,0.0886968,0.2425,0,0,31.0,4,20,0.625,0,0,0,0.08800000000000001,9,4,2836.0,396,35.1239328,0,9,2,0,2,0,0,13.0,0.0,0.0,0.0,35.04338,-85.319163,0,35.04337956,-85.31916131,0.0,0.0,0.0,,90,90,1.0,758,758,BOYNTON + RENAISSANCE,-85.31916
315,21.0,Route #21,INBOUND,,Route #21,,,Bus,40,758,BOYNTON/RENAISSANCE,E,0,,,,,0.02775280899,0.0886968,0.2425,0,0,31.0,4,20,0.625,0,0,0,0.08800000000000001,9,4,2836.0,396,35.1239328,0,9,2,0,2,0,0,13.0,0.0,0.0,0.0,35.04338,-85.319163,0,35.04337956,-85.31916131,0.0,0.0,0.0,,90,90,1.0,1307,1307,10TH + KING,-85.3053
316,13.0,Route #13,OUTBOUND,,Route #13,,,Bus,190,1195,11TH/LINDSAY,E,0,,,,,0.01025,0.0740664,0.3143015521,0,0,30.0,6,17,0.5666666667,0,0,0,0.073,3,0,1230.0,280,20.738592,0,3,0,0,0,0,0,22.0,0.0,0.0,0.0,35.0435,-85.308037,0,35.04349558,-85.30804405,0.0,0.0,0.0,,41,41,3.0,1195,1195,11TH + LINDSAY,-85.30804
317,13.0,Route #13,OUTBOUND,,Route #13,,,Bus,450,1398,23RD/ORCHARD KNOB,E,0,,,,,0.0095,0.1039368,0.3701727642,0,0,30.0,5,18,0.6,0,0,0,0.146,2,11,1230.0,235,24.425148,0,1,2,1,5,0,0,19.0,0.0,0.0,0.0,35.01938,-85.28371800000001,0,35.01937908,-85.28371515,0.0,0.0,0.0,,41,41,1.0,1398,1398,23RD + ORCHARD KNOB,-85.28372
318,13.0,Route #13,OUTBOUND,,Route #13,,,Bus,570,1231,4TH/33RD,S,0,,,,,0.0075,0.0947928,0.24422579449999998,0,0,30.0,4,9,0.3,0,0,0,0.024,0,2,1230.0,170,16.114776000000003,0,0,1,0,1,0,0,13.0,0.0,0.0,0.0,35.00565,-85.286437,0,35.0056704,-85.28642370000001,0.0,0.0,0.0,,41,41,8.0,1231,1231,4TH + 33RD,-85.28644
319,13.0,Route #13,OUTBOUND,,Route #13,,,Bus,640,1236,37TH/3RD AVE,W,0,,,,,0.0055,0.1118616,0.2627725425,0,0,30.0,3,8,0.2666666667,0,0,0,0.024,0,2,1230.0,155,17.338548,0,0,2,0,0,0,0,12.0,0.0,0.0,0.0,35.00108,-85.289695,0,35.001081899999996,-85.28969617,0.0,0.0,0.0,,41,41,1.0,1236,1236,37TH + 3RD AVE,-85.2897
320,14.0,Route #14,INBOUND,,Route #14,Special,,Bus,240,1449,PALMETTO/ADMINISTRATION BLDG,N,0,,,,,0.4526804124,0.1441704,0.20882803789999999,0,0,30.0,2,13,0.43333333329999996,0,0,0,0.127,26,44,8970.0,697,100.4867688,5,26,41,0,4,0,0,7.0,0.0,0.0,0.0,35.04739,-85.293812,0,35.04738762,-85.2938126,0.0,0.0,0.0,,299,299,1.0,1449,1449,PALMETTO + ADMINISTRATION BLDG,-85.29381
321,14.0,Route #14,OUTBOUND,,Route #14,Special,,Bus,140,402,PALMETTO/CHALLENGER CENTER,S,0,,,,,0.017965517240000003,0.08656319999999999,0.13194274960000002,0,0,30.0,2,11,0.36666666670000003,0,0,0,0.036000000000000004,6,10,8940.0,731,63.27769920000001,0,6,6,0,1,0,0,8.0,0.0,0.0,0.0,35.04766,-85.29378,0,35.04766021,-85.29377776,0.0,0.0,0.0,,298,298,1.0,402,402,PALMETTO + CHALLENGER CENTER,-85.29378
322,14.0,Route #14,OUTBOUND,,Route #14,Special,,Bus,190,406,PALMETTO/MCCALLIE AVE,S,0,,,,,0.02434482759,0.10698479999999999,0.155039277,0,0,30.0,2,11,0.36666666670000003,0,0,0,0.127,19,32,8940.0,695,74.35443599999999,0,19,26,0,10,0,0,7.0,0.0,0.0,0.0,35.04398,-85.29571800000001,0,35.04398145,-85.29571276,0.0,0.0,0.0,,298,298,2.0,406,406,PALMETTO + MCCALLIE AVE,-85.29571999999999
323,15.0,Route #15,INBOUND,,Route #15,,,Bus,100,472,BROAD/WENDYS,N,0,,,,,0.0,0.5407152,0.9119588745,0,0,30.0,2,7,0.23333333329999997,0,0,0,0.0,0,0,630.0,57,30.8207664,0,0,0,0,0,0,0,9.0,0.0,0.0,0.0,35.02015,-85.32072,0,35.020148999999996,-85.320717,0.0,0.0,0.0,,21,21,1.0,472,472,BROAD + WENDYS,-85.32072
324,15.0,Route #15,INBOUND,,Route #15,,,Bus,120,474,BROAD/27TH,N,0,,,,,0.00380952381,0.2218944,0.3611111111,0,0,30.0,2,6,0.2,0,0,0,0.047,0,1,630.0,55,12.204191999999999,0,0,1,0,0,0,0,8.0,0.0,0.0,0.0,35.02563,-85.31773199999999,0,35.02563371,-85.3177351,0.0,0.0,0.0,,21,21,2.0,474,474,BROAD + 27TH,-85.31773000000001
325,15.0,Route #15,INBOUND,,Route #15,,,Bus,140,1415,BROAD/25TH,N,0,,,,,0.0,0.4974335999999999,0.7818181818000001,0,0,30.0,2,6,0.2,0,0,0,0.0,0,0,510.0,43,21.3896448,0,0,0,0,0,0,0,8.0,0.0,0.0,0.0,35.02832,-85.316238,0,35.02832,-85.316238,0.0,0.0,0.0,,17,17,0.0,1415,1415,BROAD + 25TH,-85.31624000000001
326,15.0,Route #15,INBOUND,,Route #15,,,Bus,150,476,BROAD/21ST,N,0,,,,,0.0,0.21945599999999998,0.3441558442,0,0,30.0,2,6,0.2,0,0,0,0.095,0,2,630.0,53,11.631167999999999,1,0,2,0,0,0,0,8.0,0.0,0.0,0.0,35.03235,-85.31395,0,35.032348999999996,-85.31395,0.0,0.0,0.0,,21,21,0.0,476,476,BROAD + 21ST,-85.31395
327,15.0,Route #15,OUTBOUND,,Route #15,,,Bus,250,430,BROAD/20TH,S,0,,,,,0.001428571429,0.1152144,0.2284090909,0,0,30.0,3,8,0.2666666667,0,0,0,0.0,0,0,630.0,67,7.7193648,0,0,0,0,0,0,0,10.0,0.0,0.0,0.0,35.03366,-85.313488,0,35.033659,-85.31348619,0.0,0.0,0.0,,21,21,1.0,430,430,BROAD + 20TH,-85.31349
328,15.0,Route #15,OUTBOUND,,Route #15,,,Bus,260,1410,BROAD/21ST,S,0,,,,,0.0,0.50292,0.9970238095,0,0,30.0,3,8,0.2666666667,0,0,0,0.0,0,0,630.0,67,33.695640000000004,0,0,0,0,0,0,0,10.0,0.0,0.0,0.0,35.03275,-85.31410799999999,0,35.032749,-85.31411,0.0,0.0,0.0,,21,21,1.0,1410,1410,BROAD + 21ST,-85.31411
329,15.0,Route #15,OUTBOUND,,Route #15,,,Bus,300,434,BROAD/28TH,S,0,,,,,0.0061904761899999996,0.477012,0.9456619769,0,0,30.0,3,7,0.23333333329999997,0,0,0,0.047,2,0,630.0,67,31.959804,0,2,0,0,0,0,0,10.0,0.0,0.0,0.0,35.02497,-85.31830500000001,0,35.02496138,-85.318314,0.0,0.0,0.0,,21,21,4.0,434,434,BROAD + 28TH,-85.31831
330,15.0,Route #15,OUTBOUND,,Route #15,,,Bus,340,1411,BROAD/33RD,S,0,,,,,0.0,0.0932688,0.1821428571,0,0,30.0,3,7,0.23333333329999997,0,0,0,0.0,0,0,630.0,66,6.155740799999999,0,0,0,0,0,0,0,10.0,0.0,0.0,0.0,35.01789,-85.322183,0,35.017891,-85.322182,0.0,0.0,0.0,,21,21,0.0,1411,1411,BROAD + 33RD,-85.32218
331,15.0,Route #15,OUTBOUND,,Route #15,,,Bus,400,440,ST ELMO/41ST,S,0,,,,,0.0,0.20543520000000004,0.3707972583,0,0,30.0,2,6,0.2,0,0,0,0.0,0,0,630.0,61,12.531547199999999,0,0,0,0,0,0,0,9.0,0.0,0.0,0.0,35.00674,-85.328683,0,35.006741,-85.328682,0.0,0.0,0.0,,21,21,0.0,440,440,ST ELMO + 41ST,-85.32868
332,15.0,Route #15,OUTBOUND,,Route #15,,,Bus,530,452,55TH/ALABAMA,S,0,,,,,0.1857142857,0.169164,0.23525432899999998,0,0,30.0,2,4,0.1333333333,0,0,0,0.0,0,0,630.0,47,7.9507080000000006,0,0,0,0,0,0,0,7.0,0.0,0.0,0.0,34.98845,-85.332737,0,34.98843376,-85.33275443,0.0,0.0,0.0,,21,21,8.0,451,451,ST ELMO + 55TH,-85.33121
333,15.0,Route #15,OUTBOUND,,Route #15,,,Bus,530,452,55TH/ALABAMA,S,0,,,,,0.1857142857,0.169164,0.23525432899999998,0,0,30.0,2,4,0.1333333333,0,0,0,0.0,0,0,630.0,47,7.9507080000000006,0,0,0,0,0,0,0,7.0,0.0,0.0,0.0,34.98845,-85.332737,0,34.98843376,-85.33275443,0.0,0.0,0.0,,21,21,8.0,452,452,55TH + ALABAMA,-85.33274
334,16.4,Route #16 In:16,INBOUND,,Route #16,,,Bus,70,562,N POINT BLVD/OWEN CYCLERY,E,0,,,,,0.1146363636,0.577596,1.102806474,0,0,30.0,3,16,0.5,0,0,0,0.363,48,28,3340.0,338,195.227448,0,48,14,0,9,0,0,10.0,0.0,0.0,0.0,35.13868,-85.244188,0,35.13866674,-85.24424679,0.0,0.0,0.0,,110,110,18.0,562,562,N POINT BLVD + OWEN CYCLERY,-85.24419
335,16.4,Route #16 In:16,INBOUND,,Route #16,,,Bus,200,580,HIXSON PK/FOREST HIGHLAND,W,0,,,,,0.0,0.310896,0.7902892562,0,0,30.0,4,18,0.5625,0,0,0,0.0,0,0,3340.0,450,139.9032,0,0,0,0,0,0,0,13.0,0.0,0.0,0.0,35.11313,-85.263388,0,35.113129,-85.26339,0.0,0.0,0.0,,110,110,1.0,580,580,HIXSON PK + FOREST HIGHLAND,-85.26339
336,16.4,Route #16 In:16,INBOUND,,Route #16,,,Bus,240,585,HIXSON PK/MANCHESTER,S,0,,,,,0.0009433962264,0.1831848,0.46978994490000003,0,0,30.0,4,18,0.5625,0,0,0,0.018000000000000002,2,0,3340.0,454,83.16589920000001,0,2,0,0,0,0,0,13.0,0.0,0.0,0.0,35.10846,-85.271653,0,35.10845846,-85.27165293,0.0,0.0,0.0,,110,110,1.0,585,585,HIXSON PK + MANCHESTER,-85.27165
337,16.4,Route #16 In:16,INBOUND,,Route #16,,,Bus,280,589,HIXSON PK/BLACK OAK,W,0,,,,,0.00462962963,0.1609344,0.44,0,0,30.0,4,18,0.5625,0,0,0,0.045,5,0,3340.0,484,77.8922496,0,5,0,0,0,0,0,14.0,0.0,0.0,0.0,35.10153,-85.275738,0,35.10151904,-85.27575491,0.0,0.0,0.0,,110,110,6.0,589,589,HIXSON PK + BLACK OAK,-85.27574
338,16.4,Route #16 In:16,INBOUND,,Route #16,,,Bus,290,590,HIXSON PK/LAWSON,W,0,,,,,0.0,0.0969264,0.265,0,0,30.0,4,18,0.5625,0,0,0,0.0,0,0,3340.0,484,46.9123776,0,0,0,0,0,0,0,14.0,0.0,0.0,0.0,35.1007,-85.277185,0,35.1007,-85.27718399999999,0.0,0.0,0.0,,110,110,0.0,590,590,HIXSON PK + LAWSON,-85.27719
339,16.4,Route #16 In:16,INBOUND,,Route #16,,,Bus,450,605,HIXSON PK/HANOVER,S,0,,,,,0.0,0.233172,0.6533057850999999,0,0,30.0,4,16,0.5,0,0,0,0.09,10,7,3340.0,496,115.65331200000001,0,10,7,0,0,0,0,14.0,0.0,0.0,0.0,35.06868,-85.289472,0,35.06868,-85.289474,0.0,0.0,0.0,,110,110,1.0,605,605,HIXSON PK + HANOVER,-85.28947
340,16.4,Route #16 In:16,INBOUND,,Route #16,,,Bus,470,607,HIXSON PK/RUSSELL,W,0,,,,,0.0,0.1420368,0.3979614325,0,0,30.0,4,16,0.5,0,0,0,0.0,0,0,3340.0,496,70.45025279999999,0,0,0,0,0,0,0,14.0,0.0,0.0,0.0,35.06626,-85.29163299999999,0,35.066261,-85.291634,0.0,0.0,0.0,,110,110,0.0,607,607,HIXSON PK + RUSSELL,-85.29163
341,16.4,Route #16 In:16,INBOUND,,Route #16,,,Bus,500,610,BARTON/CREWDSON,W,0,,,,,0.0011926605499999999,0.16764,0.4668560606,0,0,30.0,4,16,0.5,0,0,0,0.009000000000000001,0,2,3340.0,493,82.64652,0,0,2,0,0,0,0,14.0,0.0,0.0,0.0,35.063959999999994,-85.297435,0,35.06396233,-85.29742976,0.0,0.0,0.0,,110,110,2.0,610,610,BARTON + CREWDSON,-85.29744000000001
342,16.4,Route #16 In:16,OUTBOUND,,Route #16,,,Bus,190,1596,FRAZIER/TREMONT,E,0,,,,,0.01436893204,0.8604504000000001,2.16293905,0,0,30.0,4,12,0.375,0,0,0,0.07200000000000001,5,4,3340.0,445,382.900428,0,5,4,0,0,0,0,13.0,0.0,0.0,0.0,35.061809999999994,-85.305097,0,35.06181083,-85.30509784,0.0,0.0,0.0,,110,110,0.0,1596,1596,FRAZIER + TREMONT,-85.3051
343,16.4,Route #16 In:16,OUTBOUND,,Route #16,,,Bus,200,511,BARTON/CREWDSON,E,0,,,,,0.003925233645000001,0.0996696,0.25110537190000004,0,0,30.0,4,12,0.375,0,0,0,0.018000000000000002,2,1,3340.0,446,44.4526416,0,2,1,0,0,0,0,13.0,0.0,0.0,0.0,35.06388,-85.297498,0,35.06388371,-85.29749386,0.0,0.0,0.0,,110,110,2.0,511,511,BARTON + CREWDSON,-85.2975
344,16.4,Route #16 In:16,OUTBOUND,,Route #16,,,Bus,310,520,HIXSON PK/1336,N,0,,,,,0.0,0.15057120000000002,0.3750929752,0,0,30.0,4,12,0.375,0,0,0,0.0,0,0,3340.0,441,66.4018992,0,0,0,0,0,0,0,13.0,0.0,0.0,0.0,35.072959999999995,-85.28858199999999,0,35.072959999999995,-85.28858199999999,0.0,0.0,0.0,,110,110,0.0,520,520,HIXSON PK + 1336,-85.28858000000001
345,16.4,Route #16 In:16,OUTBOUND,,Route #16,,,Bus,410,531,HIXSON PK/RIVER HILL,N,0,,,,,0.03245283019,0.1365504,0.33630853990000004,0,0,30.0,3,12,0.375,0,0,0,0.18100000000000002,16,11,3340.0,436,59.53597439999999,0,16,9,0,2,0,0,13.0,0.0,0.0,0.0,35.09023,-85.286865,0,35.09023601,-85.28686293,0.0,0.0,0.0,,110,110,2.0,531,531,HIXSON PK + RIVER HILL,-85.28687
346,16.4,Route #16 In:16,OUTBOUND,,Route #16,,,Bus,450,536,HIXSON PK/MEADOW LAKE,N,0,,,,,0.01416666667,0.13563599999999998,0.3309917355,0,0,30.0,3,12,0.375,0,0,0,0.027000000000000003,0,3,3340.0,432,58.594752,0,0,3,0,0,0,0,12.0,0.0,0.0,0.0,35.10018,-85.277837,0,35.10018001,-85.27783929,0.0,0.0,0.0,,110,110,1.0,536,536,HIXSON PK + MEADOW LAKE,-85.27784
347,16.4,Route #16 In:16,OUTBOUND,,Route #16,,,Bus,460,537,HIXSON PK/RIVERMONT PL,E,0,,,,,0.0,0.1716024,0.4168216253,0,0,30.0,3,12,0.375,0,0,0,0.027000000000000003,1,3,3340.0,430,73.78903199999999,0,1,3,0,0,0,0,12.0,0.0,0.0,0.0,35.10095,-85.27669300000001,0,35.100947999999995,-85.27669499999999,0.0,0.0,0.0,,110,110,1.0,537,537,HIXSON PK + RIVERMONT PL,-85.27669
348,16.4,Route #16 In:16,OUTBOUND,,Route #16,,,Bus,490,540,HIXSON PK/INTERMONT,N,0,,,,,0.02073394495,0.20970239999999998,0.4797520661,0,0,30.0,3,12,0.375,0,0,0,0.136,2,16,3340.0,405,84.929472,1,2,11,0,6,0,0,12.0,0.0,0.0,0.0,35.10635,-85.27235300000001,0,35.10634628,-85.27235361,0.0,0.0,0.0,,110,110,1.0,540,540,HIXSON PK + INTERMONT,-85.27235
349,16.4,Route #16 In:16,OUTBOUND,,Route #16,,,Bus,580,550,HIXSON PK/DUPONT ELEM,E,0,,,,,0.008073394495,0.1789176,0.3618216253,0,0,30.0,3,11,0.34375,0,0,0,0.081,5,4,3340.0,358,64.05250079999999,0,5,2,0,3,0,0,10.0,0.0,0.0,0.0,35.11479,-85.253693,0,35.11479251,-85.25369361,0.0,0.0,0.0,,110,110,1.0,550,550,HIXSON PK + DUPONT ELEM,-85.25369
350,16.4,Route #16 In:16,OUTBOUND,,Route #16,,,Bus,640,556,HIXSON PK/WILLIAMS,N,0,,,,,0.0,0.38465759999999993,0.7192183195999999,0,0,30.0,3,11,0.34375,0,0,0,0.154,4,16,3340.0,331,127.3216656,1,4,12,0,5,0,0,9.0,0.0,0.0,0.0,35.12509,-85.247478,0,35.125091999999995,-85.247475,0.0,0.0,0.0,,110,110,1.0,556,556,HIXSON PK + WILLIAMS,-85.24748000000001
351,19.0,Route #19,INBOUND,,Route #19,,,Bus,20,1669,AIRPORT RD/LEE HWY,N,0,,,,,,0.3438144,0.4913636364,0,0,30.0,2,5,0.1666666667,0,0,0,0.0,0,0,300.0,23,7.907731200000001,0,0,0,0,0,0,0,7.0,0.0,0.0,0.0,35.02292,-85.198237,0,35.022919,-85.198235,0.0,0.0,0.0,,10,10,1.0,1669,1669,AIRPORT RD + LEE HWY,-85.19824
352,19.0,Route #19,INBOUND,,Route #19,,,Bus,90,698,WEST SHEPHERD/MEHARRY,E,0,,,,,0.009000000000000001,0.672084,1.127556818,0,0,30.0,2,6,0.2,0,0,0,0.05,2,0,600.0,54,36.292536,0,2,0,0,0,0,0,9.0,0.0,0.0,0.0,35.04272,-85.185123,0,35.042721,-85.1851177,0.0,0.0,0.0,,20,20,2.0,698,698,WEST SHEPHERD + MEHARRY,-85.18512
353,19.0,Route #19,INBOUND,,Route #19,,,Bus,120,100143,ShalPO1,X,-1,,,,,0.375,,,0,0,30.0,2,6,0.2,0,0,0,0.0,0,0,600.0,46,,0,0,0,0,0,0,0,7.0,,,,35.05359,-85.18545,0,35.05386345,-85.18704670000001,0.0,0.0,,,20,20,488.0,713,713,3RD + LOOKOUT,-85.30654
354,19.0,Route #19,INBOUND,,Route #19,,,Bus,350,670,SHALLOWFORD/EASTWOOD,W,0,,,,,0.094,0.381,0.5326704545000001,0,0,30.0,2,6,0.2,0,0,0,0.1,1,1,600.0,45,17.145,1,1,2,0,0,0,0,7.0,0.0,0.0,0.0,35.04317,-85.22416199999999,0,35.0431603,-85.22413425,0.0,0.0,0.0,,20,20,9.0,670,670,SHALLOWFORD + EASTWOOD,-85.22416
355,19.0,Route #19,INBOUND,,Route #19,,,Bus,640,688,WILCOX/OKNOB,W,0,,,,,0.0,0.2090928,0.38327651520000006,0,0,30.0,2,7,0.23333333329999997,0,0,0,0.0,0,0,600.0,59,12.336475199999999,0,0,0,0,0,0,0,9.0,0.0,0.0,0.0,35.05409,-85.26465999999999,0,35.054089000000005,-85.264664,0.0,0.0,0.0,,20,20,1.0,688,688,WILCOX + OKNOB,-85.26465999999999
356,19.0,Route #19,INBOUND,,Route #19,,,Bus,650,689,WILCOX/SHERIDAN,W,0,,,,,0.0,0.27889200000000003,0.5112215909000001,0,0,30.0,2,7,0.23333333329999997,0,0,0,0.0,0,0,600.0,59,16.454628,0,0,0,0,0,0,0,9.0,0.0,0.0,0.0,35.05486,-85.266743,0,35.054859,-85.266747,0.0,0.0,0.0,,20,20,1.0,689,689,WILCOX + SHERIDAN,-85.26674
357,19.0,Route #19,INBOUND,,Route #19,,,Bus,1040,795,BROAD/10TH,S,0,,,,,0.03666666667,0.1155192,0.07178030302999999,0,0,30.0,1,4,0.1333333333,0,0,0,0.2,0,2,300.0,10,1.155192,0,0,1,0,1,0,0,3.0,0.0,0.0,0.0,35.04503,-85.310325,0,35.04481278,-85.310342,0.0,0.0,0.0,,10,10,80.0,757,757,BOYNTON + OVERLOOK,-85.31993
358,19.0,Route #19,INBOUND,,Route #19,,,Bus,1040,795,BROAD/10TH,S,0,,,,,0.03666666667,0.1155192,0.07178030302999999,0,0,30.0,1,4,0.1333333333,0,0,0,0.2,0,2,300.0,10,1.155192,0,0,1,0,1,0,0,3.0,0.0,0.0,0.0,35.04503,-85.310325,0,35.04481278,-85.310342,0.0,0.0,0.0,,10,10,80.0,795,795,BROAD + 10TH,-85.31033000000001
359,21.0,Route #21,INBOUND,,Route #21,,,Bus,30,757,BOYNTON/OVERLOOK,S,0,,,,,0.1347191011,0.2002536,0.5405871212,0,0,31.0,4,19,0.59375,0,0,0,0.47700000000000004,74,8,2836.0,391,78.29915759999999,3,61,8,0,1,0,0,13.0,0.0,0.0,0.0,35.04503,-85.319927,0,35.04504704,-85.31992081,0.0,0.0,0.0,,90,90,6.0,757,757,BOYNTON + OVERLOOK,-85.31993
360,21.0,Route #21,INBOUND,,Route #21,,,Bus,30,757,BOYNTON/OVERLOOK,S,0,,,,,0.1347191011,0.2002536,0.5405871212,0,0,31.0,4,19,0.59375,0,0,0,0.47700000000000004,74,8,2836.0,391,78.29915759999999,3,61,8,0,1,0,0,13.0,0.0,0.0,0.0,35.04503,-85.319927,0,35.04504704,-85.31992081,0.0,0.0,0.0,,90,90,6.0,795,795,BROAD + 10TH,-85.31033000000001
361,19.0,Route #19,OUTBOUND,,Route #19,,,Bus,310,619,WILCOX/DODSON,E,0,,,,,0.0125,0.2243328,0.5366666667000001,0,0,30.0,3,11,0.36666666670000003,0,0,0,0.2,0,4,600.0,77,17.273625600000003,0,0,1,0,3,0,0,12.0,0.0,0.0,0.0,35.05267,-85.26113199999999,0,35.05267795,-85.26114705,0.0,0.0,0.0,,20,20,5.0,619,619,WILCOX + DODSON,-85.26113000000001
362,19.0,Route #19,OUTBOUND,,Route #19,,,Bus,470,626,WILCOX/MOSS,E,0,,,,,0.006,0.4291584,0.8933333333,0,0,30.0,3,10,0.3333333333,0,0,0,0.35,4,9,600.0,67,28.753612800000003,0,4,7,0,3,0,0,11.0,0.0,0.0,0.0,35.04803,-85.24058000000001,0,35.04803405,-85.24057950000001,0.0,0.0,0.0,,20,20,1.0,626,626,WILCOX + MOSS,-85.24058000000001
363,19.0,Route #19,OUTBOUND,,Route #19,,,Bus,550,1918,SHALLOWFORD/AIRPORT ROAD,N,0,,,,,0.0085,2.3436072,4.5871875,0,0,30.0,3,10,0.3333333333,0,0,0,0.1,0,2,600.0,63,147.64725359999997,0,0,3,0,0,0,0,10.0,0.0,0.0,0.0,35.050740000000005,-85.21302,0,35.05075755,-85.21299675,0.0,0.0,0.0,,20,20,9.0,1918,633,SHALLOWFORD + AIRPORT ROAD,-85.21302
364,21.0,Route #21,OUTBOUND,,Route #21,,,Bus,270,744,MAIN/COWART,W,0,,,,,0.008953488372,0.0950976,0.3718873518,0,0,31.0,6,17,0.53125,0,0,0,0.043,1,4,2900.0,579,55.061510399999996,0,1,3,0,1,0,0,19.0,0.0,0.0,0.0,35.03734,-85.310087,0,35.03733793,-85.31010115,0.0,0.0,0.0,,92,92,4.0,744,744,MAIN + COWART,-85.31009
365,21.0,Route #21,OUTBOUND,,Route #21,,,Bus,290,745,MAIN/CHESTNUT,W,0,,,,,0.007934782609,0.0966216,0.3784996706,0,0,31.0,6,18,0.5625,0,0,0,0.021,2,3,2900.0,580,56.040528,1,2,3,0,0,0,0,20.0,0.0,0.0,0.0,35.03848,-85.31323499999999,0,35.03847846,-85.31323275,0.0,0.0,0.0,,92,92,1.0,745,745,MAIN + CHESTNUT,-85.31324000000001
366,21.0,Route #21,OUTBOUND,,Route #21,,,Bus,320,748,MAIN/CYPRESS,W,0,,,,,0.050543478260000003,0.132588,0.4683485672,0,0,31.0,5,15,0.46875,0,0,0,0.326,5,34,2900.0,523,69.343524,3,5,27,0,10,0,0,18.0,0.0,0.0,0.0,35.04034,-85.318273,0,35.04035016,-85.31831637,0.0,0.0,0.0,,92,92,13.0,748,748,MAIN + CYPRESS,-85.31827
367,21.0,Route #21,OUTBOUND,,Route #21,,,Bus,390,755,BOYNTON/M.L. KING,W,0,,,,,0.0,0.30540959999999995,0.6250123518,0,0,31.0,3,15,0.46875,0,0,0,0.10800000000000001,1,14,2900.0,303,92.5391088,3,1,12,0,2,0,0,10.0,0.0,0.0,0.0,35.048429999999996,-85.318733,0,35.048431,-85.318733,0.0,0.0,0.0,,92,92,0.0,755,755,BOYNTON + M.L. KING,-85.31873
368,28.0,Route #28,OUTBOUND,,Route #28,Special,,Bus,260,774,AMNICOLA/CRUTCHFIELD,N,0,,,,,0.0124,0.1197864,0.2486022727,0,0,30.0,3,8,0.2666666667,0,0,0,0.3,4,12,1500.0,167,20.0043288,0,4,10,0,2,0,0,11.0,0.0,0.0,0.0,35.06992,-85.27027199999999,0,35.06992098,-85.27027298,0.0,0.0,0.0,,50,50,0.0,774,774,AMNICOLA + CRUTCHFIELD,-85.27027
369,33.0,Route #DTS:33,INBOUND,,Route #DTS,,,Bus,10,100075,SPN,X,-1,,,,,,,,0,0,22.0,2,5,0.2272727273,0,0,0,0.0,0,0,5544.0,1473,,0,0,0,0,0,0,0,26.0,,,,35.05403,-85.31147,0,35.05304579,-85.31081863,0.0034423407919999998,0.00028686173260000005,,,581,581,409.0,1566,1566,SHUTTLE PARK NORTH - INTERNAL,-85.31147
370,33.0,Route #DTS:33,INBOUND,,Route #DTS,,,Bus,20,1566,SHUTTLE PARK NORTH - INTERNAL,E,0,,,,,,0.1399032,0.3348595681,1,0,22.0,3,31,1.4090909090000001,0,0,0,0.47100000000000003,765,0,5544.0,2238,313.1033616,0,763,0,0,0,0,0,40.0,0.0,0.0,0.0,35.05403,-85.31147,0,35.05364754,-85.31111092,0.0034423407919999998,0.00028686173260000005,0.0,,581,581,176.0,1566,1566,SHUTTLE PARK NORTH - INTERNAL,-85.31147
371,33.0,Route #DTS:33,OUTYBOUND,,Route #DTS,,,Bus,200,100075,SPN,X,-1,,,,,,,,0,0,22.0,3,23,1.045454545,0,0,0,0.0,0,0,5434.0,2147,,0,0,0,0,0,0,0,39.0,,,,35.05403,-85.31147,0,35.05378713,-85.31130918,0.0069872958259999994,0.000998185118,,,580,580,101.0,1566,1566,SHUTTLE PARK NORTH - INTERNAL,-85.31147
372,34.0,Route #34,INBOUND,,Route #34,,,Bus,60,100075,SPN,X,-1,,,,,0.302,,,0,0,,1,7,,0,0,0,0.0,0,0,,291,,0,0,0,0,0,0,0,,,,,35.05403,-85.31147,0,35.05413772,-85.31131476,0.0,0.0,,,156,156,61.0,1566,1566,SHUTTLE PARK NORTH - INTERNAL,-85.31147
373,34.0,Route #34,OUTBOUND,,Route #34,,,Bus,140,100075,SPN,X,-1,,,,,7.585,,,0,0,,1,5,,0,0,0,0.0,0,0,,298,,0,0,0,0,0,0,0,,,,,35.05403,-85.31147,0,35.05361621,-85.31048158,0.0,0.0,,,168,168,332.0,1566,1566,SHUTTLE PARK NORTH - INTERNAL,-85.31147
374,33.0,Route #DTS:33,INBOUND,,Route #DTS,,,Bus,110,1538,CARTER/DAYS INN,S,0,,,,,0.09043795619999999,0.1496568,0.367808246,0,0,22.0,3,31,1.4090909090000001,0,0,0,0.18899999999999997,27,257,5544.0,2298,343.9113264,0,28,199,0,0,0,0,41.0,0.0,0.0,0.0,35.04464,-85.312312,0,35.04464282,-85.3123086,0.0034423407919999998,0.00028686173260000005,0.0,,581,581,1.0,891,891,LEE HWY + SHALLOWFORD RD,-85.16279
375,33.0,Route #DTS:33,INBOUND,,Route #DTS,,,Bus,110,1538,CARTER/DAYS INN,S,0,,,,,0.09043795619999999,0.1496568,0.367808246,0,0,22.0,3,31,1.4090909090000001,0,0,0,0.18899999999999997,27,257,5544.0,2298,343.9113264,0,28,199,0,0,0,0,41.0,0.0,0.0,0.0,35.04464,-85.312312,0,35.04464282,-85.3123086,0.0034423407919999998,0.00028686173260000005,0.0,,581,581,1.0,1365,1365,ORCHARD KNOB + JACKSON,-85.26995
376,33.0,Route #DTS:33,INBOUND,,Route #DTS,,,Bus,110,1538,CARTER/DAYS INN,S,0,,,,,0.09043795619999999,0.1496568,0.367808246,0,0,22.0,3,31,1.4090909090000001,0,0,0,0.18899999999999997,27,257,5544.0,2298,343.9113264,0,28,199,0,0,0,0,41.0,0.0,0.0,0.0,35.04464,-85.312312,0,35.04464282,-85.3123086,0.0034423407919999998,0.00028686173260000005,0.0,,581,581,1.0,1538,1538,CARTER  + DAYS INN,-85.31231
377,33.0,Route #DTS:33,OUTYBOUND,,Route #DTS,,,Bus,110,1538,CARTER/DAYS INN,S,0,,,,,0.08460285132,0.1496568,0.38848386890000003,0,0,22.0,4,22,1.0,0,0,0,0.193,155,81,5434.0,2423,362.6184264,0,155,66,0,0,0,0,44.0,0.0,0.0,0.0,35.04464,-85.312312,0,35.04463104,-85.31230709,0.0069872958259999994,0.000998185118,0.0,,580,580,4.0,891,891,LEE HWY + SHALLOWFORD RD,-85.16279
378,33.0,Route #DTS:33,OUTYBOUND,,Route #DTS,,,Bus,110,1538,CARTER/DAYS INN,S,0,,,,,0.08460285132,0.1496568,0.38848386890000003,0,0,22.0,4,22,1.0,0,0,0,0.193,155,81,5434.0,2423,362.6184264,0,155,66,0,0,0,0,44.0,0.0,0.0,0.0,35.04464,-85.312312,0,35.04463104,-85.31230709,0.0069872958259999994,0.000998185118,0.0,,580,580,4.0,1365,1365,ORCHARD KNOB + JACKSON,-85.26995
379,33.0,Route #DTS:33,OUTYBOUND,,Route #DTS,,,Bus,110,1538,CARTER/DAYS INN,S,0,,,,,0.08460285132,0.1496568,0.38848386890000003,0,0,22.0,4,22,1.0,0,0,0,0.193,155,81,5434.0,2423,362.6184264,0,155,66,0,0,0,0,44.0,0.0,0.0,0.0,35.04464,-85.312312,0,35.04463104,-85.31230709,0.0069872958259999994,0.000998185118,0.0,,580,580,4.0,1538,1538,CARTER  + DAYS INN,-85.31231
380,33.0,Route #DTS:33,INBOUND,,Route #DTS,,,Bus,160,800,MARKET/W 14TH,S,0,,,,,0.05443223443,0.2551176,0.5609685495000001,0,0,22.0,3,29,1.318181818,0,0,0,0.065,7,78,5544.0,2056,524.5217856,0,7,53,0,0,0,0,37.0,0.0,0.0,0.0,35.03953,-85.30765500000001,0,35.03953297,-85.30765651,0.0034423407919999998,0.00028686173260000005,0.0,,581,581,1.0,800,800,MARKET + W 14TH,-85.30766
381,33.0,Route #DTS:33,OUTYBOUND,,Route #DTS,,,Bus,130,1535,BROAD/10TH,N,0,,,,,0.03182495345,0.1978152,0.5861853448,0,0,22.0,4,23,1.045454545,0,0,0,0.294,270,50,5434.0,2766,547.1568432,0,273,56,0,0,0,0,50.0,0.0,0.0,0.0,35.0446,-85.310247,0,35.04461218,-85.31025451,0.0069872958259999994,0.000998185118,0.0,,580,580,5.0,1535,1535,BROAD + 10TH,-85.31025
382,34.0,Route #34,INBOUND,,Route #34,,,Bus,20,1655,SHUTTLE PARK NORTHSHORE GARAGE,N,0,,,,,,0.21366479999999996,0.3235601044,0,0,,2,6,,0,0,0,0.35,79,0,,368,78.62864640000001,0,64,0,0,0,0,0,,0.0,0.0,0.0,35.062490000000004,-85.304937,0,35.06242608,-85.30528773,0.0,0.0,0.0,,151,151,107.0,1655,1655,SHUTTLE PARK NORTHSHORE GARAGE,-85.30494
383,34.0,Route #34,OUTBOUND,,Route #34,,,Bus,200,1655,SHUTTLE PARK NORTHSHORE GARAGE,N,0,,,,,,,,0,0,,2,5,,0,0,0,0.315,0,76,,348,,0,23,69,0,0,0,0,,0.0,0.0,0.0,35.062490000000004,-85.304937,0,35.06236524,-85.30515918,0.0,0.0,0.0,,168,168,81.0,1655,1655,SHUTTLE PARK NORTHSHORE GARAGE,-85.30494
